[{"sno":"500101001","sna":"YouBike2.0_捷運科技大樓站","tot":28,"sbi":14,"sarea":"大安區","mday":"2021-06-17 21:57:41","lat":25.02605,"lng":121.5436,"ar":"復興南路二段235號前","sareaen":"Daan Dist.","snaen":"YouBike2.0_MRT Technology Bldg. Sta.","aren":"No.235， Sec. 2， Fuxing S. Rd.","bemp":11,"act":"1","srcUpdateTime":"2021-06-17 21:58:11","updateTime":"2021-06-17 21:58:50","infoTime":"2021-06-17 21:57:41","infoDate":"2021-06-17"},{"sno":"500101002","sna":"YouBike2.0_復興南路二段273號前","tot":15,"sbi":12,"sarea":"大安區","mday":"2021-06-17 21:57:41","lat":25.02565,"lng":121.54357,"ar":"復興南路二段273號西側","sareaen":"Daan Dist.","snaen":"YouBike2.0_No.273， Sec. 2， Fuxing S. Rd.","aren":"No.273， Sec. 2， Fuxing S. Rd. (West)","bemp":3,"act":"1","srcUpdateTime":"2021-06-17 21:58:11","updateTime":"2021-06-17 21:58:50","infoTime":"2021-06-17 21:57:41","infoDate":"2021-06-17"},{"sno":"500101003","sna":"YouBike2.0_國北教大實小東側門","tot":16,"sbi":9,"sarea":"大安區","mday":"2021-06-17 21:57:41","lat":25.02429,"lng":121.54124,"ar":"和平東路二段96巷7號","sareaen":"Daan Dist.","snaen":"YouBike2.0_NTUE Experiment Elementary School (East)","aren":"No. 7， Ln. 96， Sec. 2， Heping E. Rd","bemp":7,"act":"1","srcUpdateTime":"2021-06-17 21:58:11","updateTime":"2021-06-17 21:58:50","infoTime":"2021-06-17 21:57:41","infoDate":"2021-06-17"},{"sno":"500101004","sna":"YouBike2.0_和平公園東側","tot":11,"sbi":7,"sarea":"大安區","mday":"2021-06-17 21:57:41","lat":25.02351,"lng":121.54282,"ar":"和平東路二段118巷33號","sareaen":"Daan Dist.","snaen":"YouBike2.0_Heping Park (East)","aren":"No. 33， Ln. 118， Sec. 2， Heping E. Rd","bemp":4,"act":"1","srcUpdateTime":"2021-06-17 21:58:11","updateTime":"2021-06-17 21:58:50","infoTime":"2021-06-17 21:57:41","infoDate":"2021-06-17"},{"sno":"500101005","sna":"YouBike2.0_辛亥復興路口西北側","tot":16,"sbi":2,"sarea":"大安區","mday":"2021-06-17 21:57:41","lat":25.02153,"lng":121.54299,"ar":"復興南路二段368號","sareaen":"Daan Dist.","snaen":"YouBike2.0_Xinhai Fuxing Rd. Intersection (Northwest)","aren":"No. 368， Sec. 2， Fuxing S. Rd.","bemp":14,"act":"1","srcUpdateTime":"2021-06-17 21:58:11","updateTime":"2021-06-17 21:58:50","infoTime":"2021-06-17 21:57:41","infoDate":"2021-06-17"},{"sno":"500101006","sna":"YouBike2.0_復興南路二段280號前","tot":11,"sbi":5,"sarea":"大安區","mday":"2021-06-17 21:57:41","lat":25.02429,"lng":121.54328,"ar":"復興南路二段280號","sareaen":"Daan Dist.","snaen":"YouBike2.0_No. 280， Sec. 2， Fuxing S. Rd.","aren":"No. 280， Sec. 2， Fuxing S. Rd.","bemp":6,"act":"1","srcUpdateTime":"2021-06-17 21:58:11","updateTime":"2021-06-17 21:58:50","infoTime":"2021-06-17 21:57:41","infoDate":"2021-06-17"},{"sno":"500101007","sna":"YouBike2.0_復興南路二段340巷口","tot":11,"sbi":4,"sarea":"大安區","mday":"2021-06-17 21:57:41","lat":25.02253,"lng":121.54326,"ar":"復興南路二段342號","sareaen":"Daan Dist.","snaen":"YouBike2.0_Ln. 340， Sec. 2， Fuxing S. Rd.","aren":"No. 342， Sec. 2， Fuxing S. Rd.","bemp":7,"act":"1","srcUpdateTime":"2021-06-17 21:58:11","updateTime":"2021-06-17 21:58:50","infoTime":"2021-06-17 21:57:41","infoDate":"2021-06-17"},{"sno":"500101008","sna":"YouBike2.0_新生南路三段52號前","tot":17,"sbi":8,"sarea":"大安區","mday":"2021-06-17 21:57:41","lat":25.02112,"lng":121.53407,"ar":"新生南路三段52號","sareaen":"Daan Dist.","snaen":"YouBike2.0_No. 52， Sec. 3， Xinsheng S. Rd.","aren":"No. 52， Sec. 3， Xinsheng S. Rd.","bemp":9,"act":"1","srcUpdateTime":"2021-06-17 21:58:11","updateTime":"2021-06-17 21:58:50","infoTime":"2021-06-17 21:57:41","infoDate":"2021-06-17"},{"sno":"500101009","sna":"YouBike2.0_新生南路三段66號前","tot":16,"sbi":7,"sarea":"大安區","mday":"2021-06-17 21:57:41","lat":25.01976,"lng":121.53384,"ar":"新生南路三段66號東側","sareaen":"Daan Dist.","snaen":"YouBike2.0_No. 66， Sec. 3， Xinsheng S. Rd.","aren":"No. 66， Sec. 3， Xinsheng S. Rd. (East)","bemp":9,"act":"1","srcUpdateTime":"2021-06-17 21:58:11","updateTime":"2021-06-17 21:58:50","infoTime":"2021-06-17 21:57:41","infoDate":"2021-06-17"},{"sno":"500101010","sna":"YouBike2.0_新生南路三段82號前","tot":20,"sbi":9,"sarea":"大安區","mday":"2021-06-17 21:57:41","lat":25.01894,"lng":121.53361,"ar":"新生南路三段82號","sareaen":"Daan Dist.","snaen":"YouBike2.0_No. 82， Sec. 3， Xinsheng S. Rd.","aren":"No. 82， Sec. 3， Xinsheng S. Rd.","bemp":11,"act":"1","srcUpdateTime":"2021-06-17 21:58:11","updateTime":"2021-06-17 21:58:50","infoTime":"2021-06-17 21:57:41","infoDate":"2021-06-17"},{"sno":"500101011","sna":"YouBike2.0_羅斯福路三段333巷9號旁","tot":7,"sbi":0,"sarea":"大安區","mday":"2021-06-17 21:57:41","lat":25.01757,"lng":121.53271,"ar":"羅斯福路三段333巷9號","sareaen":"Daan Dist.","snaen":"YouBike2.0_No. 9， Ln. 333， Sec. 3， Roosevelt Rd.","aren":"No. 9， Ln. 333， Sec. 3， Roosevelt Rd.","bemp":7,"act":"1","srcUpdateTime":"2021-06-17 21:58:11","updateTime":"2021-06-17 21:58:50","infoTime":"2021-06-17 21:57:41","infoDate":"2021-06-17"},{"sno":"500101012","sna":"YouBike2.0_辛亥路一段30號前","tot":8,"sbi":4,"sarea":"大安區","mday":"2021-06-17 21:57:41","lat":25.01986,"lng":121.52982,"ar":"辛亥路一段30號","sareaen":"Daan Dist.","snaen":"YouBike2.0_No. 30， Sec. 1， Xinhai Rd.","aren":"No. 30， Sec. 1， Xinhai Rd.","bemp":4,"act":"1","srcUpdateTime":"2021-06-17 21:58:11","updateTime":"2021-06-17 21:58:50","infoTime":"2021-06-17 21:57:41","infoDate":"2021-06-17"},{"sno":"500101013","sna":"YouBike2.0_和平復興路口西北側","tot":9,"sbi":0,"sarea":"大安區","mday":"2021-06-17 21:57:41","lat":25.02543,"lng":121.54332,"ar":"復興南路二段236號","sareaen":"Daan Dist.","snaen":"YouBike2.0_Heping Fuxing Rd. Intersection (Northwest)","aren":"No. 236， Sec. 2， Fuxing S. Rd.","bemp":9,"act":"1","srcUpdateTime":"2021-06-17 21:58:11","updateTime":"2021-06-17 21:58:50","infoTime":"2021-06-17 21:57:41","infoDate":"2021-06-17"},{"sno":"500101014","sna":"YouBike2.0_羅斯福路三段311號前","tot":11,"sbi":5,"sarea":"大安區","mday":"2021-06-17 21:57:41","lat":25.01717,"lng":121.53202,"ar":"羅斯福路三段311號","sareaen":"Daan Dist.","snaen":"YouBike2.0_No. 311， Sec. 3， Roosevelt Rd.","aren":"No. 311， Sec. 3， Roosevelt Rd.","bemp":6,"act":"1","srcUpdateTime":"2021-06-17 21:58:11","updateTime":"2021-06-17 21:58:50","infoTime":"2021-06-17 21:57:41","infoDate":"2021-06-17"},{"sno":"500101015","sna":"YouBike2.0_大安運動中心停車場","tot":14,"sbi":12,"sarea":"大安區","mday":"2021-06-17 21:57:41","lat":25.020348,"lng":121.546446,"ar":"敦南街76巷28號","sareaen":"Daan Dist.","snaen":"YouBike2.0_Taipei Da-an Sports Center Parking lot","aren":"No. 28， Ln. 76， Dunnan St.","bemp":2,"act":"1","srcUpdateTime":"2021-06-17 21:58:11","updateTime":"2021-06-17 21:58:50","infoTime":"2021-06-17 21:57:41","infoDate":"2021-06-17"},{"sno":"500101016","sna":"YouBike2.0_羅斯福路三段245號前","tot":8,"sbi":7,"sarea":"大安區","mday":"2021-06-17 21:57:41","lat":25.01927,"lng":121.52989,"ar":"羅斯福路三段245號","sareaen":"Daan Dist.","snaen":"YouBike2.0_No. 245， Sec. 3， Roosevelt Rd.","aren":"No. 245， Sec. 3， Roosevelt Rd.","bemp":1,"act":"1","srcUpdateTime":"2021-06-17 21:58:11","updateTime":"2021-06-17 21:58:50","infoTime":"2021-06-17 21:57:41","infoDate":"2021-06-17"},{"sno":"500101017","sna":"YouBike2.0_羅斯福路三段269巷5號前","tot":10,"sbi":0,"sarea":"大安區","mday":"2021-06-17 21:57:41","lat":25.01913,"lng":121.53079,"ar":"羅斯福路三段269巷5號","sareaen":"Daan Dist.","snaen":"YouBike2.0_No. 5， Ln. 269， Sec. 3， Roosevelt Rd.","aren":"No. 5， Ln. 269， Sec. 3， Roosevelt Rd.","bemp":10,"act":"0","srcUpdateTime":"2021-06-17 21:58:11","updateTime":"2021-06-17 21:58:50","infoTime":"2021-06-17 21:57:41","infoDate":"2021-06-17"},{"sno":"500101018","sna":"YouBike2.0_溫州公園","tot":5,"sbi":2,"sarea":"大安區","mday":"2021-06-17 21:57:41","lat":25.01895,"lng":121.53156,"ar":"羅斯福路三段283巷11號","sareaen":"Daan Dist.","snaen":"YouBike2.0_Wenzhou Park","aren":"No. 11， Ln. 283， Sec. 3， Roosevelt Rd.","bemp":3,"act":"1","srcUpdateTime":"2021-06-17 21:58:11","updateTime":"2021-06-17 21:58:50","infoTime":"2021-06-17 21:57:41","infoDate":"2021-06-17"},{"sno":"500101019","sna":"YouBike2.0_和平臥龍街口","tot":15,"sbi":6,"sarea":"大安區","mday":"2021-06-17 21:57:41","lat":25.024461,"lng":121.546705,"ar":"臥龍街1號","sareaen":"Daan Dist.","snaen":"YouBike2.0_Heping Wolong St. Intersection","aren":"No. 1， Wolong St.","bemp":9,"act":"1","srcUpdateTime":"2021-06-17 21:58:11","updateTime":"2021-06-17 21:58:50","infoTime":"2021-06-17 21:57:41","infoDate":"2021-06-17"},{"sno":"500101020","sna":"YouBike2.0_溫州停車場","tot":5,"sbi":3,"sarea":"大安區","mday":"2021-06-17 21:57:41","lat":25.02093,"lng":121.5331,"ar":"新生南路三段54巷/溫州街口","sareaen":"Daan Dist.","snaen":"YouBike2.0_Wenzhou Parking Lot","aren":"Ln. 54， Sec. 3， Xinsheng S. Rd. & Wenzhou St. Intersection","bemp":2,"act":"1","srcUpdateTime":"2021-06-17 21:58:11","updateTime":"2021-06-17 21:58:50","infoTime":"2021-06-17 21:57:41","infoDate":"2021-06-17"},{"sno":"500101021","sna":"YouBike2.0_銘傳國小側門","tot":7,"sbi":3,"sarea":"大安區","mday":"2021-06-17 21:57:41","lat":25.01385,"lng":121.53549,"ar":"羅斯福路四段21號旁天橋下","sareaen":"Daan Dist.","snaen":"YouBike2.0_Taipei Municipal MingChuan Elementary School(Side Gate)","aren":"No. 21， Sec. 4， Roosevelt Rd.","bemp":4,"act":"1","srcUpdateTime":"2021-06-17 21:58:11","updateTime":"2021-06-17 21:58:50","infoTime":"2021-06-17 21:57:41","infoDate":"2021-06-17"},{"sno":"500101022","sna":"YouBike2.0_捷運公館站(2號出口)","tot":60,"sbi":22,"sarea":"大安區","mday":"2021-06-17 21:57:41","lat":25.01491,"lng":121.53438,"ar":"捷運公館站(2號出口)外側","sareaen":"Daan Dist.","snaen":"YouBike2.0_MRT Gongguan Sta. (Exit 2)","aren":"MRT Gongguan Sta. (Exit 2)","bemp":11,"act":"1","srcUpdateTime":"2021-06-17 21:58:11","updateTime":"2021-06-17 21:58:50","infoTime":"2021-06-17 21:57:41","infoDate":"2021-06-17"},{"sno":"500101023","sna":"YouBike2.0_第二學生活動中心","tot":27,"sbi":4,"sarea":"大安區","mday":"2021-06-17 21:57:41","lat":25.01244,"lng":121.53661,"ar":"羅斯福路四段107號(西南側)","sareaen":"Daan Dist.","snaen":"YouBike2.0_2nd Student Activity Center","aren":"No. 107， Sec. 4， Roosevelt Rd.(Southwest)","bemp":22,"act":"1","srcUpdateTime":"2021-06-17 21:58:11","updateTime":"2021-06-17 21:58:50","infoTime":"2021-06-17 21:57:41","infoDate":"2021-06-17"},{"sno":"500101024","sna":"YouBike2.0_臺灣科技大學正門","tot":30,"sbi":6,"sarea":"大安區","mday":"2021-06-17 21:57:41","lat":25.01451,"lng":121.54142,"ar":"基隆路四段43號(臺灣科技大學正門旁小側門靠田徑場)","sareaen":"Daan Dist.","snaen":"YouBike2.0_NTUST(Main Gate)","aren":"No. 43， Sec. 4， Keelung Rd.","bemp":24,"act":"1","srcUpdateTime":"2021-06-17 21:58:11","updateTime":"2021-06-17 21:58:50","infoTime":"2021-06-17 21:57:41","infoDate":"2021-06-17"},{"sno":"500101025","sna":"YouBike2.0_臺灣科技大學側門","tot":35,"sbi":8,"sarea":"大安區","mday":"2021-06-17 21:57:41","lat":25.01295,"lng":121.53973,"ar":"基隆路四段73巷與基隆路口","sareaen":"Daan Dist.","snaen":"YouBike2.0_NTUST(Side Gate)","aren":"Ln. 73， Sec. 4， Keelung Rd. Intersection","bemp":25,"act":"1","srcUpdateTime":"2021-06-17 21:58:11","updateTime":"2021-06-17 21:58:50","infoTime":"2021-06-17 21:57:41","infoDate":"2021-06-17"},{"sno":"500101026","sna":"YouBike2.0_公館公園","tot":15,"sbi":2,"sarea":"大安區","mday":"2021-06-17 21:57:41","lat":25.01137,"lng":121.54062,"ar":"羅斯福路四段113巷基隆路四段41巷口","sareaen":"Daan Dist.","snaen":"YouBike2.0_Gongguan Park","aren":"Ln. 113， Sec. 4， Roosevelt Rd. & Ln. 41， Sec. 4， Keelung Rd. Intersection","bemp":13,"act":"1","srcUpdateTime":"2021-06-17 21:58:11","updateTime":"2021-06-17 21:58:50","infoTime":"2021-06-17 21:57:41","infoDate":"2021-06-17"},{"sno":"500101027","sna":"YouBike2.0_臺灣科技大學後門","tot":39,"sbi":7,"sarea":"大安區","mday":"2021-06-17 21:57:41","lat":25.01182,"lng":121.54165,"ar":"基隆路四段41巷68弄臺科帆船大樓旁","sareaen":"Daan Dist.","snaen":"YouBike2.0_NTUST(Back Gate)","aren":"Aly. 68， Ln. 41， Sec. 4， Keelung Rd.","bemp":32,"act":"1","srcUpdateTime":"2021-06-17 21:58:11","updateTime":"2021-06-17 21:58:50","infoTime":"2021-06-17 21:57:41","infoDate":"2021-06-17"},{"sno":"500101028","sna":"YouBike2.0_臺大醫學院附設癌醫中心","tot":20,"sbi":7,"sarea":"大安區","mday":"2021-06-17 21:57:41","lat":25.01426,"lng":121.54382,"ar":"基隆路三段155巷57號西側","sareaen":"Daan Dist.","snaen":"YouBike2.0_NTU Cancer Center","aren":"No. 57， Ln. 155， Sec. 3， Keelung Rd.(West)","bemp":11,"act":"1","srcUpdateTime":"2021-06-17 21:58:11","updateTime":"2021-06-17 21:58:50","infoTime":"2021-06-17 21:57:41","infoDate":"2021-06-17"},{"sno":"500101029","sna":"YouBike2.0_臺大環研大樓","tot":15,"sbi":2,"sarea":"大安區","mday":"2021-06-17 21:57:41","lat":25.01234,"lng":121.54503,"ar":"芳蘭路/基隆路三段155巷口","sareaen":"Daan Dist.","snaen":"YouBike2.0_NTU Environment Research Building","aren":"Fanglan Rd & Ln. 155， Sec. 3， Keelung Rd. Intersection","bemp":13,"act":"1","srcUpdateTime":"2021-06-17 21:58:11","updateTime":"2021-06-17 21:58:50","infoTime":"2021-06-17 21:57:41","infoDate":"2021-06-17"},{"sno":"500101030","sna":"YouBike2.0_臺大永齡生醫工程館","tot":34,"sbi":10,"sarea":"大安區","mday":"2021-06-17 21:57:41","lat":25.0136,"lng":121.54656,"ar":"芳蘭路51號西北側","sareaen":"Daan Dist.","snaen":"YouBike2.0_NTU Yonglin Biomedical Engineering Hall","aren":"No. 51， Fanglan Rd.(Northwest)","bemp":24,"act":"1","srcUpdateTime":"2021-06-17 21:58:11","updateTime":"2021-06-17 21:58:50","infoTime":"2021-06-17 21:57:41","infoDate":"2021-06-17"},{"sno":"500101031","sna":"YouBike2.0_臺大男七舍前","tot":20,"sbi":3,"sarea":"大安區","mday":"2021-06-17 21:57:41","lat":25.01537,"lng":121.54698,"ar":"長興街/長興街80巷口西側","sareaen":"Daan Dist.","snaen":"YouBike2.0_NTU 7th Men's Dorm","aren":"Ln. 80， Changxing St. Intersection(West)","bemp":17,"act":"1","srcUpdateTime":"2021-06-17 21:58:11","updateTime":"2021-06-17 21:58:50","infoTime":"2021-06-17 21:57:41","infoDate":"2021-06-17"},{"sno":"500101032","sna":"YouBike2.0_臺大男一舍前","tot":61,"sbi":27,"sarea":"大安區","mday":"2021-06-17 21:57:41","lat":25.01637,"lng":121.54535,"ar":"長興街50號西北側","sareaen":"Daan Dist.","snaen":"YouBike2.0_NTU 1st Men's Dorm","aren":"No. 50， Changxing St.(Northwest)","bemp":34,"act":"1","srcUpdateTime":"2021-06-17 21:58:11","updateTime":"2021-06-17 21:58:50","infoTime":"2021-06-17 21:57:41","infoDate":"2021-06-17"},{"sno":"500101033","sna":"YouBike2.0_臺大男六舍前","tot":46,"sbi":9,"sarea":"大安區","mday":"2021-06-17 21:57:41","lat":25.01664,"lng":121.5452,"ar":"大安區長興街31號","sareaen":"Daan Dist.","snaen":"YouBike2.0_NTU 6th Men's Dorm","aren":"No. 31， Changxing St.","bemp":37,"act":"1","srcUpdateTime":"2021-06-17 21:58:11","updateTime":"2021-06-17 21:58:50","infoTime":"2021-06-17 21:57:41","infoDate":"2021-06-17"},{"sno":"500101034","sna":"YouBike2.0_臺大動物醫院前","tot":18,"sbi":9,"sarea":"大安區","mday":"2021-06-17 21:57:41","lat":25.01576,"lng":121.54291,"ar":"基隆路三段155巷/基隆路四段口","sareaen":"Daan Dist.","snaen":"YouBike2.0_NTU Veterinary Hospital","aren":"Ln. 155， Sec. 3， Keelung Rd. Intersection","bemp":9,"act":"1","srcUpdateTime":"2021-06-17 21:58:11","updateTime":"2021-06-17 21:58:50","infoTime":"2021-06-17 21:57:41","infoDate":"2021-06-17"},{"sno":"500101035","sna":"YouBike2.0_臺大土木研究大樓前","tot":11,"sbi":1,"sarea":"大安區","mday":"2021-06-17 21:57:41","lat":25.01787,"lng":121.5476,"ar":"辛亥路三段188號","sareaen":"Daan Dist.","snaen":"YouBike2.0_NTU Civil Engineering Research Building","aren":"No. 188， Sec. 3， Xinhai Rd.","bemp":10,"act":"1","srcUpdateTime":"2021-06-17 21:58:11","updateTime":"2021-06-17 21:58:50","infoTime":"2021-06-17 21:57:41","infoDate":"2021-06-17"},{"sno":"500101036","sna":"YouBike2.0_臺大萬才館前","tot":20,"sbi":8,"sarea":"大安區","mday":"2021-06-17 21:57:41","lat":25.02032,"lng":121.54497,"ar":"臺大萬才館北側","sareaen":"Daan Dist.","snaen":"YouBike2.0_NTU Wan Tsai Research Hall","aren":"NTU Wan Tsai Research Hall","bemp":12,"act":"1","srcUpdateTime":"2021-06-17 21:58:11","updateTime":"2021-06-17 21:58:50","infoTime":"2021-06-17 21:57:41","infoDate":"2021-06-17"},{"sno":"500101037","sna":"YouBike2.0_臺大國青大樓宿舍前","tot":20,"sbi":6,"sarea":"大安區","mday":"2021-06-17 21:57:41","lat":25.02076,"lng":121.54432,"ar":"辛亥路三段30號西北側","sareaen":"Daan Dist.","snaen":"YouBike2.0_NTU Guo - Ching Building","aren":"No. 30， Sec. 3， Xinhai Rd.(Northwest)","bemp":14,"act":"1","srcUpdateTime":"2021-06-17 21:58:11","updateTime":"2021-06-17 21:58:50","infoTime":"2021-06-17 21:57:41","infoDate":"2021-06-17"},{"sno":"500101038","sna":"YouBike2.0_臺大社科院圖書館前","tot":27,"sbi":6,"sarea":"大安區","mday":"2021-06-17 21:57:41","lat":25.02101,"lng":121.54284,"ar":"辛亥路與復興南路口西南側","sareaen":"Daan Dist.","snaen":"YouBike2.0_NTU College of social Sciences Building","aren":"Xinhai Fuxing Rd. Intersection (Southwest)","bemp":20,"act":"1","srcUpdateTime":"2021-06-17 21:58:11","updateTime":"2021-06-17 21:58:50","infoTime":"2021-06-17 21:57:41","infoDate":"2021-06-17"},{"sno":"500101039","sna":"YouBike2.0_臺大法人語言訓練中心前","tot":28,"sbi":24,"sarea":"大安區","mday":"2021-06-17 21:57:41","lat":25.02104,"lng":121.54081,"ar":"臺大法人語言訓練中心北側","sareaen":"Daan Dist.","snaen":"YouBike2.0_NTU Language Training & Testing Center","aren":"NTU Language Training & Testing Center(North)","bemp":4,"act":"1","srcUpdateTime":"2021-06-17 21:58:11","updateTime":"2021-06-17 21:58:50","infoTime":"2021-06-17 21:57:41","infoDate":"2021-06-17"},{"sno":"500101040","sna":"YouBike2.0_臺大綜合體育館停車場前","tot":25,"sbi":3,"sarea":"大安區","mday":"2021-06-17 21:57:41","lat":25.0222,"lng":121.53626,"ar":"臺大綜合體育館北側","sareaen":"Daan Dist.","snaen":"YouBike2.0_NTU Sports Center Car Park","aren":"NTU Sports Center(North)","bemp":22,"act":"1","srcUpdateTime":"2021-06-17 21:58:11","updateTime":"2021-06-17 21:58:50","infoTime":"2021-06-17 21:57:41","infoDate":"2021-06-17"},{"sno":"500101041","sna":"YouBike2.0_辛亥新生路口東南側","tot":21,"sbi":15,"sarea":"大安區","mday":"2021-06-17 21:57:41","lat":25.02218,"lng":121.53474,"ar":"辛亥新生路口東南側","sareaen":"Daan Dist.","snaen":"YouBike2.0_Xinhai Xinsheng Rd. Intersection (Southeast)","aren":"Xinhai Xinsheng Rd. Intersection (Southeast)","bemp":6,"act":"1","srcUpdateTime":"2021-06-17 21:58:11","updateTime":"2021-06-17 21:58:50","infoTime":"2021-06-17 21:57:41","infoDate":"2021-06-17"},{"sno":"500101042","sna":"YouBike2.0_基隆長興路口東側","tot":15,"sbi":2,"sarea":"大安區","mday":"2021-06-17 21:57:41","lat":25.01727,"lng":121.54471,"ar":"基隆長興路口東側","sareaen":"Daan Dist.","snaen":"YouBike2.0_Keelung Changxing Rd. Intersection(East)","aren":"Keelung Changxing Rd. Intersection(East)","bemp":13,"act":"1","srcUpdateTime":"2021-06-17 21:58:11","updateTime":"2021-06-17 21:58:50","infoTime":"2021-06-17 21:57:41","infoDate":"2021-06-17"},{"sno":"500101091","sna":"YouBike2.0_國北教大側門南側","tot":25,"sbi":9,"sarea":"大安區","mday":"2021-06-17 21:57:41","lat":25.022864,"lng":121.546622,"ar":"敦南街51號","sareaen":"Daan Dist.","snaen":"YouBike2.0_NTUE Side Gate(South)","aren":"No. 51， Dunnan St.","bemp":16,"act":"1","srcUpdateTime":"2021-06-17 21:58:11","updateTime":"2021-06-17 21:58:50","infoTime":"2021-06-17 21:57:41","infoDate":"2021-06-17"},{"sno":"500101092","sna":"YouBike2.0_和平實小東北側","tot":13,"sbi":6,"sarea":"大安區","mday":"2021-06-17 21:57:41","lat":25.021641,"lng":121.54704,"ar":"敦南街73號","sareaen":"Daan Dist.","snaen":"YouBike2.0_Heping Experiment Elementary School (Northeast)","aren":"No. 73， Dunnan St.","bemp":7,"act":"1","srcUpdateTime":"2021-06-17 21:58:11","updateTime":"2021-06-17 21:58:50","infoTime":"2021-06-17 21:57:41","infoDate":"2021-06-17"},{"sno":"500101093","sna":"YouBike2.0_大安區健康服務中心","tot":15,"sbi":4,"sarea":"大安區","mday":"2021-06-17 21:57:41","lat":25.021469,"lng":121.544069,"ar":"辛亥路三段15號","sareaen":"Daan Dist.","snaen":"YouBike2.0_Daan District Public Health Center","aren":"No. 15， Sec. 1， Xinhai Rd.","bemp":11,"act":"1","srcUpdateTime":"2021-06-17 21:58:11","updateTime":"2021-06-17 21:58:50","infoTime":"2021-06-17 21:57:41","infoDate":"2021-06-17"},{"sno":"500101094","sna":"YouBike2.0_辛亥泰順街口","tot":20,"sbi":11,"sarea":"大安區","mday":"2021-06-17 21:57:41","lat":25.02193,"lng":121.53165,"ar":"辛亥泰順街口東南側","sareaen":"Daan Dist.","snaen":"YouBike2.0_Xinhai Taishun St. Intersection","aren":"Xinhai Taishun St. Intersection (Southeast)","bemp":7,"act":"1","srcUpdateTime":"2021-06-17 21:58:11","updateTime":"2021-06-17 21:58:50","infoTime":"2021-06-17 21:57:41","infoDate":"2021-06-17"},{"sno":"500101095","sna":"YouBike2.0_芳和國中","tot":28,"sbi":8,"sarea":"大安區","mday":"2021-06-17 21:57:41","lat":25.0189,"lng":121.55013,"ar":"臥龍街170號(前)","sareaen":"Daan Dist.","snaen":"YouBike2.0_Fanghe Junior High School","aren":"No. 170， Wolong St.","bemp":20,"act":"1","srcUpdateTime":"2021-06-17 21:58:11","updateTime":"2021-06-17 21:58:50","infoTime":"2021-06-17 21:57:41","infoDate":"2021-06-17"},{"sno":"500101096","sna":"YouBike2.0_辛亥基隆路口","tot":20,"sbi":3,"sarea":"大安區","mday":"2021-06-17 21:57:41","lat":25.0187,"lng":121.54757,"ar":"基隆路三段/辛亥路三段(東北側)","sareaen":"Daan Dist.","snaen":"YouBike2.0_Xinhai Keelung Rd. Intersection","aren":"Sec. 3， Keelung Rd. & Sec. 3， Xinhai Rd. (Northeast)","bemp":17,"act":"1","srcUpdateTime":"2021-06-17 21:58:11","updateTime":"2021-06-17 21:58:50","infoTime":"2021-06-17 21:57:41","infoDate":"2021-06-17"},{"sno":"500101097","sna":"YouBike2.0_臥龍樂業街口","tot":19,"sbi":6,"sarea":"大安區","mday":"2021-06-17 21:57:41","lat":25.01856,"lng":121.55558,"ar":"臥龍街234-2號","sareaen":"Daan Dist.","snaen":"YouBike2.0_Wolong Leye St. Intersection","aren":"No. 234-2， Wolong St.","bemp":13,"act":"1","srcUpdateTime":"2021-06-17 21:58:11","updateTime":"2021-06-17 21:58:50","infoTime":"2021-06-17 21:57:41","infoDate":"2021-06-17"},{"sno":"500101098","sna":"YouBike2.0_臥龍公園","tot":14,"sbi":7,"sarea":"大安區","mday":"2021-06-17 21:57:41","lat":25.01623,"lng":121.55037,"ar":"辛亥路三段223號西側","sareaen":"Daan Dist.","snaen":"YouBike2.0_Wolong Park","aren":"No. 223， Sec. 3， Xinhai Rd. (West)","bemp":7,"act":"1","srcUpdateTime":"2021-06-17 21:58:11","updateTime":"2021-06-17 21:58:50","infoTime":"2021-06-17 21:57:41","infoDate":"2021-06-17"},{"sno":"500101099","sna":"YouBike2.0_嘉興公園","tot":20,"sbi":18,"sarea":"大安區","mday":"2021-06-17 21:57:41","lat":25.021,"lng":121.55211,"ar":"樂業街101巷3號西北側","sareaen":"Daan Dist.","snaen":"YouBike2.0_Jiaxing Park","aren":"No. 3， Ln. 101， Leye St. (Northwest)","bemp":2,"act":"1","srcUpdateTime":"2021-06-17 21:58:11","updateTime":"2021-06-17 21:58:50","infoTime":"2021-06-17 21:57:41","infoDate":"2021-06-17"},{"sno":"500101100","sna":"YouBike2.0_捷運麟光站(2號出口)","tot":25,"sbi":14,"sarea":"大安區","mday":"2021-06-17 21:57:41","lat":25.0181,"lng":121.55929,"ar":"和平東路三段420號東北側","sareaen":"Daan Dist.","snaen":"YouBike2.0_MRT Linguang Sta. (Exit 2)","aren":"No. 420， Sec. 3， Heping E. Rd. (Northeast)","bemp":11,"act":"1","srcUpdateTime":"2021-06-17 21:58:11","updateTime":"2021-06-17 21:58:50","infoTime":"2021-06-17 21:57:41","infoDate":"2021-06-17"},{"sno":"500101101","sna":"YouBike2.0_捷運六張犁站","tot":18,"sbi":7,"sarea":"大安區","mday":"2021-06-17 21:57:41","lat":25.02397,"lng":121.55266,"ar":"和平東路三段410號","sareaen":"Daan Dist.","snaen":"YouBike2.0_MRT Liuzhangli Sta.","aren":"No. 410， Sec. 3， Heping E. Rd.","bemp":11,"act":"1","srcUpdateTime":"2021-06-17 21:58:11","updateTime":"2021-06-17 21:58:50","infoTime":"2021-06-17 21:57:41","infoDate":"2021-06-17"},{"sno":"500101102","sna":"YouBike2.0_喬治工商","tot":16,"sbi":5,"sarea":"大安區","mday":"2021-06-17 21:57:41","lat":25.02705,"lng":121.55551,"ar":"基隆路二段166號","sareaen":"Daan Dist.","snaen":"YouBike2.0_George Vocational High School of Taipei","aren":"No. 166， Sec. 2， Keelung Rd.","bemp":11,"act":"1","srcUpdateTime":"2021-06-17 21:58:11","updateTime":"2021-06-17 21:58:50","infoTime":"2021-06-17 21:57:41","infoDate":"2021-06-17"},{"sno":"500101103","sna":"YouBike2.0_法治公園","tot":15,"sbi":6,"sarea":"大安區","mday":"2021-06-17 21:57:41","lat":25.02694,"lng":121.55325,"ar":"通化街189號西側","sareaen":"Daan Dist.","snaen":"YouBike2.0_Fazhi Park","aren":"No. 189， Tonghua St. (West)","bemp":9,"act":"1","srcUpdateTime":"2021-06-17 21:58:11","updateTime":"2021-06-17 21:58:50","infoTime":"2021-06-17 21:57:41","infoDate":"2021-06-17"},{"sno":"500101104","sna":"YouBike2.0_捷運臺電大樓站(2號出口)","tot":14,"sbi":7,"sarea":"大安區","mday":"2021-06-17 21:57:41","lat":25.02021,"lng":121.52942,"ar":"辛亥路一段/羅斯福路三段口北側(辛亥路側)","sareaen":"Daan Dist.","snaen":"YouBike2.0_MRT Taipower Building Sta. (Exit 2)","aren":"Sec. 1， Xinhai Rd & Sec. 3， Roosevelt Rd (North)","bemp":7,"act":"1","srcUpdateTime":"2021-06-17 21:58:11","updateTime":"2021-06-17 21:58:50","infoTime":"2021-06-17 21:57:41","infoDate":"2021-06-17"},{"sno":"500101107","sna":"YouBike2.0_和平龍泉街口","tot":17,"sbi":11,"sarea":"大安區","mday":"2021-06-17 21:57:42","lat":25.0264,"lng":121.52924,"ar":"和平東路一段/龍泉街口西南側","sareaen":"Daan Dist.","snaen":"YouBike2.0_Sec. 1， Heping E. Rd & Longquan St. Intersection","aren":"Sec. 1， Heping E. Rd & Longquan St. Intersection (Southwest)","bemp":6,"act":"1","srcUpdateTime":"2021-06-17 21:58:11","updateTime":"2021-06-17 21:58:50","infoTime":"2021-06-17 21:57:42","infoDate":"2021-06-17"},{"sno":"500101108","sna":"YouBike2.0_和平泰順街口","tot":9,"sbi":9,"sarea":"大安區","mday":"2021-06-17 21:57:42","lat":25.02621,"lng":121.53171,"ar":"和平東路一段/泰順街口東南側","sareaen":"Daan Dist.","snaen":"YouBike2.0_Sec. 1， Heping E. Rd & Taishun St  Intersection","aren":"Sec. 1， Heping E. Rd & Taishun St  Intersection (Southeast)","bemp":0,"act":"1","srcUpdateTime":"2021-06-17 21:58:11","updateTime":"2021-06-17 21:58:50","infoTime":"2021-06-17 21:57:42","infoDate":"2021-06-17"},{"sno":"500101109","sna":"YouBike2.0_臺灣師範大學(圖書館)","tot":13,"sbi":5,"sarea":"大安區","mday":"2021-06-17 21:57:42","lat":25.0266,"lng":121.52973,"ar":"和平東路一段129號前","sareaen":"Daan Dist.","snaen":"YouBike2.0_National Taiwan Normal University (library)","aren":"No. 129， Sec. 1， Heping E. Rd.","bemp":8,"act":"1","srcUpdateTime":"2021-06-17 21:58:11","updateTime":"2021-06-17 21:58:50","infoTime":"2021-06-17 21:57:42","infoDate":"2021-06-17"},{"sno":"500101110","sna":"YouBike2.0_捷運古亭站(6號出口)","tot":15,"sbi":8,"sarea":"大安區","mday":"2021-06-17 21:57:42","lat":25.0276,"lng":121.52217,"ar":"羅斯福路二段41號前","sareaen":"Daan Dist.","snaen":"YouBike2.0_MRT Guting Sta. (Exit 6)","aren":"No. 41， Sec. 2， Roosevelt Rd","bemp":7,"act":"1","srcUpdateTime":"2021-06-17 21:58:11","updateTime":"2021-06-17 21:58:50","infoTime":"2021-06-17 21:57:42","infoDate":"2021-06-17"},{"sno":"500101111","sna":"YouBike2.0_捷運古亭站(5號出口)","tot":14,"sbi":9,"sarea":"大安區","mday":"2021-06-17 21:57:42","lat":25.02715,"lng":121.52293,"ar":"和平東路一段19號前","sareaen":"Daan Dist.","snaen":"YouBike2.0_MRT Guting Sta. (Exit 5)","aren":"No. 19， Sec. 1， Heping E. Rd","bemp":5,"act":"1","srcUpdateTime":"2021-06-17 21:58:11","updateTime":"2021-06-17 21:58:50","infoTime":"2021-06-17 21:57:42","infoDate":"2021-06-17"},{"sno":"500101113","sna":"YouBike2.0_臺北市立圖書館(總館)","tot":19,"sbi":8,"sarea":"大安區","mday":"2021-06-17 21:57:42","lat":25.02895,"lng":121.5379,"ar":"建國南路二段/建國南路二段151巷(橋下空間)","sareaen":"Daan Dist.","snaen":"YouBike2.0_Taipei Public library","aren":"Sec. 2， Jianguo S. Rd & Ln. 151， Sec. 2， Jianguo S. Rd (Under Bridge)","bemp":11,"act":"1","srcUpdateTime":"2021-06-17 21:58:11","updateTime":"2021-06-17 21:58:50","infoTime":"2021-06-17 21:57:42","infoDate":"2021-06-17"},{"sno":"500101114","sna":"YouBike2.0_新生和平路口東北側","tot":15,"sbi":8,"sarea":"大安區","mday":"2021-06-17 21:57:42","lat":25.02657,"lng":121.53515,"ar":"新生南路二段與和平東路二段口東北側","sareaen":"Daan Dist.","snaen":"YouBike2.0_Sec. 2， Xinsheng S. Rd & Sec. 2， Heping E. Rd Intersection","aren":"Sec. 2， Xinsheng S. Rd & Sec. 2， Heping E. Rd (Northeast)","bemp":7,"act":"1","srcUpdateTime":"2021-06-17 21:58:11","updateTime":"2021-06-17 21:58:50","infoTime":"2021-06-17 21:57:42","infoDate":"2021-06-17"},{"sno":"500101115","sna":"YouBike2.0_建國和平路口西北側","tot":20,"sbi":12,"sarea":"大安區","mday":"2021-06-17 21:57:42","lat":25.02606,"lng":121.53738,"ar":"建國南路二段與和平東路二段口西北側","sareaen":"Daan Dist.","snaen":"YouBike2.0_Sec. 2， Jianguo S. Rd & Sec. 2， Heping E. Rd Intersection","aren":"Sec. 2， Jianguo S. Rd & Sec. 2， Heping E. Rd. (Northwest)","bemp":8,"act":"1","srcUpdateTime":"2021-06-17 21:58:11","updateTime":"2021-06-17 21:58:50","infoTime":"2021-06-17 21:57:42","infoDate":"2021-06-17"},{"sno":"500101116","sna":"YouBike2.0_金華公園","tot":11,"sbi":9,"sarea":"大安區","mday":"2021-06-17 21:57:42","lat":25.02984,"lng":121.53107,"ar":"金華街249號對面","sareaen":"Daan Dist.","snaen":"YouBike2.0_Jinhua Park","aren":"No. 249， Jinhua St. (Opposite)","bemp":2,"act":"1","srcUpdateTime":"2021-06-17 21:58:11","updateTime":"2021-06-17 21:58:50","infoTime":"2021-06-17 21:57:42","infoDate":"2021-06-17"},{"sno":"500101117","sna":"YouBike2.0_捷運東門站(3號出口)","tot":15,"sbi":5,"sarea":"大安區","mday":"2021-06-17 21:57:42","lat":25.03383,"lng":121.52815,"ar":"信義路二段128號前","sareaen":"Daan Dist.","snaen":"YouBike2.0_MRT Dongmen Sta. (Exit 3)","aren":"No. 128， Sec. 2， Xinyi Rd.","bemp":10,"act":"1","srcUpdateTime":"2021-06-17 21:58:11","updateTime":"2021-06-17 21:58:50","infoTime":"2021-06-17 21:57:42","infoDate":"2021-06-17"},{"sno":"500101118","sna":"YouBike2.0_金甌女中","tot":12,"sbi":7,"sarea":"大安區","mday":"2021-06-17 21:57:42","lat":25.03519,"lng":121.5245,"ar":"信義路二段與杭州南路二段東南側","sareaen":"Daan Dist.","snaen":"YouBike2.0_Jin'ou Girls High School","aren":"Sec. 2， Xinyi Rd. & Sec. 2， Hangzhou S. Rd. (Southeast)","bemp":5,"act":"1","srcUpdateTime":"2021-06-17 21:58:11","updateTime":"2021-06-17 21:58:50","infoTime":"2021-06-17 21:57:42","infoDate":"2021-06-17"},{"sno":"500101119","sna":"YouBike2.0_金杭公園","tot":20,"sbi":4,"sarea":"大安區","mday":"2021-06-17 21:57:42","lat":25.03325,"lng":121.52436,"ar":"愛國東路21巷與杭州南路二段25巷口東南側","sareaen":"Daan Dist.","snaen":"YouBike2.0_Jinhang Park","aren":"Ln. 21， Aiguo E. Rd. & Ln. 25， Sec. 2， Hangzhou S. Rd. Intersection (Southeast)","bemp":16,"act":"1","srcUpdateTime":"2021-06-17 21:58:11","updateTime":"2021-06-17 21:58:50","infoTime":"2021-06-17 21:57:42","infoDate":"2021-06-17"},{"sno":"500101120","sna":"YouBike2.0_愛國金山路口","tot":21,"sbi":13,"sarea":"大安區","mday":"2021-06-17 21:57:42","lat":25.03164,"lng":121.52661,"ar":"愛國東路與杭州南路二段口西南側","sareaen":"Daan Dist.","snaen":"YouBike2.0_Aiguo & Jinshan Rd. Intersection","aren":"Aiguo E. Rd. & Sec. 2， Hangzhou S. Rd. Intersection (Southwest)","bemp":8,"act":"1","srcUpdateTime":"2021-06-17 21:58:11","updateTime":"2021-06-17 21:58:50","infoTime":"2021-06-17 21:57:42","infoDate":"2021-06-17"},{"sno":"500101122","sna":"YouBike2.0_敦化南路二段293巷口南側","tot":14,"sbi":0,"sarea":"大安區","mday":"2021-06-17 21:57:42","lat":25.0237,"lng":121.54899,"ar":"敦化南路二段293巷口南側","sareaen":"Daan Dist.","snaen":"YouBike2.0_Ln. 293， Sec. 2， Dunhua S. Rd (South)","aren":"Ln. 293， Sec. 2， Dunhua S. Rd. (South)","bemp":14,"act":"1","srcUpdateTime":"2021-06-17 21:58:11","updateTime":"2021-06-17 21:58:50","infoTime":"2021-06-17 21:57:42","infoDate":"2021-06-17"},{"sno":"500101123","sna":"YouBike2.0_敦化基隆路口","tot":16,"sbi":3,"sarea":"大安區","mday":"2021-06-17 21:57:42","lat":25.02215,"lng":121.54839,"ar":"敦化南路二段218號","sareaen":"Daan Dist.","snaen":"YouBike2.0_Sec. 2， Dunhua S. Rd & Sec. 2， Keelung Rd Intersection","aren":"No. 218， Sec. 2， Dunhua S. Rd","bemp":13,"act":"1","srcUpdateTime":"2021-06-17 21:58:11","updateTime":"2021-06-17 21:58:50","infoTime":"2021-06-17 21:57:42","infoDate":"2021-06-17"},{"sno":"500101124","sna":"YouBike2.0_安和路二段181巷口","tot":17,"sbi":1,"sarea":"大安區","mday":"2021-06-17 21:57:42","lat":25.02721,"lng":121.54988,"ar":"安和路二段185號","sareaen":"Daan Dist.","snaen":"YouBike2.0_Ln. 181， Sec. 2， Anhe Rd","aren":"No185， Sec. 2， Anhe Rd","bemp":16,"act":"1","srcUpdateTime":"2021-06-17 21:58:11","updateTime":"2021-06-17 21:58:50","infoTime":"2021-06-17 21:57:42","infoDate":"2021-06-17"},{"sno":"500101125","sna":"YouBike2.0_臨江街夜市(通化街101巷口)","tot":16,"sbi":8,"sarea":"大安區","mday":"2021-06-17 21:57:42","lat":25.02952,"lng":121.55406,"ar":"通化街111號","sareaen":"Daan Dist.","snaen":"YouBike2.0_Linjiang St night market (Ln. 101， Tonghua St)","aren":"No. 101， Tonghua St.","bemp":8,"act":"1","srcUpdateTime":"2021-06-17 21:58:11","updateTime":"2021-06-17 21:58:50","infoTime":"2021-06-17 21:57:42","infoDate":"2021-06-17"},{"sno":"500101126","sna":"YouBike2.0_臨江街夜市(基隆路)","tot":17,"sbi":6,"sarea":"大安區","mday":"2021-06-17 21:57:42","lat":25.02931,"lng":121.55721,"ar":"基隆路二段108號","sareaen":"Daan Dist.","snaen":"YouBike2.0_Linjiang St night market (Keelung Rd)","aren":"No. 108， Sec. 2， Keelung Rd.","bemp":11,"act":"1","srcUpdateTime":"2021-06-17 21:58:11","updateTime":"2021-06-17 21:58:50","infoTime":"2021-06-17 21:57:42","infoDate":"2021-06-17"},{"sno":"500101127","sna":"YouBike2.0_台北科技大學億光大樓","tot":46,"sbi":18,"sarea":"大安區","mday":"2021-06-17 21:57:42","lat":25.04177,"lng":121.53833,"ar":"忠孝東路三段81號","sareaen":"Daan Dist.","snaen":"YouBike2.0_National Taipei University of Technology (Everlight Building)","aren":"No. 81， Sec. 3， Zhongxiao E. Rd.","bemp":28,"act":"1","srcUpdateTime":"2021-06-17 21:58:11","updateTime":"2021-06-17 21:58:50","infoTime":"2021-06-17 21:57:42","infoDate":"2021-06-17"},{"sno":"500101128","sna":"YouBike2.0_新生南路一段119巷口","tot":33,"sbi":15,"sarea":"大安區","mday":"2021-06-17 21:57:42","lat":25.04003,"lng":121.53299,"ar":"新生南路一段113號","sareaen":"Daan Dist.","snaen":"YouBike2.0_Ln. 119， Sec. 1， Xinsheng S. Rd Intersection","aren":"No. 113， Ln. 119， Sec. 1， Xinsheng S. Rd.","bemp":18,"act":"1","srcUpdateTime":"2021-06-17 21:58:11","updateTime":"2021-06-17 21:58:50","infoTime":"2021-06-17 21:57:42","infoDate":"2021-06-17"},{"sno":"500101131","sna":"YouBike2.0_復興南路1段340巷口","tot":18,"sbi":3,"sarea":"大安區","mday":"2021-06-17 21:57:42","lat":25.03701,"lng":121.54348,"ar":"復興南路一段信義路三段147巷45弄口","sareaen":"Daan Dist.","snaen":"YouBike2.0_Ln. 340， Sec. 1， Fuxing S. Rd Intersection","aren":"Sec. 1， Fuxing S. Rd & Aly. 45， Ln. 147， Sec. 3， Xinyi Rd Intersection.","bemp":15,"act":"1","srcUpdateTime":"2021-06-17 21:58:11","updateTime":"2021-06-17 21:58:50","infoTime":"2021-06-17 21:57:42","infoDate":"2021-06-17"},{"sno":"500101132","sna":"YouBike2.0_建國濟南路口","tot":18,"sbi":4,"sarea":"大安區","mday":"2021-06-17 21:57:42","lat":25.03935,"lng":121.53828,"ar":"建國南路一段/濟南路三段口(東南側)","sareaen":"Daan Dist.","snaen":"YouBike2.0_Sec. 1， Jianguo S. Rd & Sec. 3， Jinan Rd Intersection","aren":"Sec. 1， Jianguo S. Rd & Sec. 3， Jinan Rd Intersection. (Southeast)","bemp":14,"act":"1","srcUpdateTime":"2021-06-17 21:58:11","updateTime":"2021-06-17 21:58:50","infoTime":"2021-06-17 21:57:42","infoDate":"2021-06-17"},{"sno":"500101133","sna":"YouBike2.0_捷運忠孝復興站(2號出口)","tot":23,"sbi":11,"sarea":"大安區","mday":"2021-06-17 21:57:42","lat":25.04035,"lng":121.5436,"ar":"復興南路一段/仁愛路三段123巷13弄(西北側)","sareaen":"Daan Dist.","snaen":"YouBike2.0_MRT Zhongxiao Fuxing Sta (Exit 2)","aren":"Sec. 1， Fuxing S. R & Aly. 13， Ln. 123， Sec. 3， Ren'ai Rd. (Northwest)","bemp":12,"act":"1","srcUpdateTime":"2021-06-17 21:58:11","updateTime":"2021-06-17 21:58:50","infoTime":"2021-06-17 21:57:42","infoDate":"2021-06-17"},{"sno":"500101134","sna":"YouBike2.0_捷運大安站(4號出口)","tot":13,"sbi":13,"sarea":"大安區","mday":"2021-06-17 21:57:42","lat":25.0332,"lng":121.5439,"ar":"信義路4段6號(前)","sareaen":"Daan Dist.","snaen":"YouBike2.0_MRT Da’an Sta (Exit 4)","aren":"No. 6， Sec. 4， Xinyi Rd.","bemp":0,"act":"1","srcUpdateTime":"2021-06-17 21:58:11","updateTime":"2021-06-17 21:58:50","infoTime":"2021-06-17 21:57:42","infoDate":"2021-06-17"},{"sno":"500101136","sna":"YouBike2.0_信義大安路口(信維大樓)","tot":12,"sbi":4,"sarea":"大安區","mday":"2021-06-17 21:57:42","lat":25.03317,"lng":121.54639,"ar":"信義路四段74號(前)","sareaen":"Daan Dist.","snaen":"YouBike2.0_Sec. 4， Xinyi Rd & Da’an Rd Intersection (Xinwei Building)","aren":"No. 74， Sec. 4， Xinyi Rd.","bemp":8,"act":"1","srcUpdateTime":"2021-06-17 21:58:11","updateTime":"2021-06-17 21:58:50","infoTime":"2021-06-17 21:57:42","infoDate":"2021-06-17"},{"sno":"500101139","sna":"YouBike2.0_信義敦化路口","tot":19,"sbi":6,"sarea":"大安區","mday":"2021-06-17 21:57:42","lat":25.03333,"lng":121.54977,"ar":"信義路四段155號前","sareaen":"Daan Dist.","snaen":"YouBike2.0_Sec. 4， Xinyi Rd & Sec. 1， Dunhua S. Rd Intersection","aren":"No. 155， Sec. 4， Xinyi Rd","bemp":13,"act":"1","srcUpdateTime":"2021-06-17 21:58:11","updateTime":"2021-06-17 21:58:50","infoTime":"2021-06-17 21:57:42","infoDate":"2021-06-17"},{"sno":"500101140","sna":"YouBike2.0_仁愛國中","tot":25,"sbi":2,"sarea":"大安區","mday":"2021-06-17 21:57:42","lat":25.03706,"lng":121.55166,"ar":"安和路一段75號(對面)","sareaen":"Daan Dist.","snaen":"YouBike2.0_Ren Ai Junior High School","aren":"No. 75， Sec. 1， Anhe Rd.","bemp":23,"act":"1","srcUpdateTime":"2021-06-17 21:58:11","updateTime":"2021-06-17 21:58:50","infoTime":"2021-06-17 21:57:42","infoDate":"2021-06-17"},{"sno":"500101141","sna":"YouBike2.0_捷運信義安和站(2號出口)","tot":26,"sbi":17,"sarea":"大安區","mday":"2021-06-17 21:57:42","lat":25.03304,"lng":121.55171,"ar":"信義路四段188號前","sareaen":"Daan Dist.","snaen":"YouBike2.0_MRT Xinyi Anhe Sta (Exit 2)","aren":"No. 188， Sec. 4， Xinyi Rd","bemp":8,"act":"1","srcUpdateTime":"2021-06-17 21:58:11","updateTime":"2021-06-17 21:58:50","infoTime":"2021-06-17 21:57:42","infoDate":"2021-06-17"},{"sno":"500101143","sna":"YouBike2.0_昌隆公園","tot":16,"sbi":6,"sarea":"大安區","mday":"2021-06-17 21:57:42","lat":25.04448,"lng":121.53946,"ar":"市民大道三段206號西側","sareaen":"Daan Dist.","snaen":"YouBike2.0_Changlong Park","aren":"No. 206， Sec. 3， Civic Blvd. (West)","bemp":10,"act":"1","srcUpdateTime":"2021-06-17 21:58:11","updateTime":"2021-06-17 21:58:50","infoTime":"2021-06-17 21:57:42","infoDate":"2021-06-17"},{"sno":"500101144","sna":"YouBike2.0_捷運大安森林公園站(2號出口)","tot":22,"sbi":6,"sarea":"大安區","mday":"2021-06-17 21:57:42","lat":25.03332,"lng":121.53435,"ar":"捷運大安森林公園站(2號出口)西側","sareaen":"Daan Dist.","snaen":"YouBike2.0_MRT Daan Park Sta. (Exit 2)","aren":"MRT Daan Park Sta. (Exit 2) (West)","bemp":16,"act":"1","srcUpdateTime":"2021-06-17 21:58:11","updateTime":"2021-06-17 21:58:50","infoTime":"2021-06-17 21:57:42","infoDate":"2021-06-17"},{"sno":"500103001","sna":"YouBike2.0_延平國宅","tot":30,"sbi":12,"sarea":"大同區","mday":"2021-06-17 21:57:42","lat":25.07894,"lng":121.51121,"ar":"延平北路五段1-1號(對面)","sareaen":"Datong Dist","snaen":"YouBike2.0_Yanping Public Housing","aren":"No. 1-1， Sec. 5， Yanping N. Rd. (Opposite)","bemp":18,"act":"1","srcUpdateTime":"2021-06-17 21:58:11","updateTime":"2021-06-17 21:58:50","infoTime":"2021-06-17 21:57:42","infoDate":"2021-06-17"},{"sno":"500104001","sna":"YouBike2.0_劍潭抽水站","tot":17,"sbi":10,"sarea":"士林區","mday":"2021-06-17 21:57:42","lat":25.08128,"lng":121.51784,"ar":"通河東街325巷/通河東街口","sareaen":"Shilin Dist","snaen":"YouBike2.0_Jiantan Pumping Station","aren":"Ln. 325， Tonghe St. Intersection","bemp":7,"act":"1","srcUpdateTime":"2021-06-17 21:58:11","updateTime":"2021-06-17 21:58:50","infoTime":"2021-06-17 21:57:42","infoDate":"2021-06-17"},{"sno":"500104002","sna":"YouBike2.0_通河東街大南路口","tot":15,"sbi":11,"sarea":"士林區","mday":"2021-06-17 21:57:42","lat":25.08914,"lng":121.51542,"ar":"通河東街1段192號(旁)","sareaen":"Shilin Dist","snaen":"YouBike2.0_Tonghe E. St. & Danan Rd. Intersection","aren":"No. 192， Sec.1， Tonghe E. St. (Side)","bemp":4,"act":"1","srcUpdateTime":"2021-06-17 21:58:11","updateTime":"2021-06-17 21:58:50","infoTime":"2021-06-17 21:57:42","infoDate":"2021-06-17"},{"sno":"500104003","sna":"YouBike2.0_福港街停車場","tot":22,"sbi":15,"sarea":"士林區","mday":"2021-06-17 21:57:42","lat":25.08695,"lng":121.51901,"ar":"華齡街175號(旁)","sareaen":"Shilin Dist","snaen":"YouBike2.0_Fugang St. Parking Lot","aren":"No. 175， Hualing St. (Side)","bemp":7,"act":"1","srcUpdateTime":"2021-06-17 21:58:11","updateTime":"2021-06-17 21:58:50","infoTime":"2021-06-17 21:57:42","infoDate":"2021-06-17"},{"sno":"500104004","sna":"YouBike2.0_百齡國小","tot":21,"sbi":19,"sarea":"士林區","mday":"2021-06-17 21:57:42","lat":25.08521,"lng":121.51918,"ar":"前港街104號(對面)","sareaen":"Shilin Dist","snaen":"YouBike2.0_Bailing Elementary School","aren":"No. 104， Qiangang St. (Opposite)","bemp":2,"act":"1","srcUpdateTime":"2021-06-17 21:58:11","updateTime":"2021-06-17 21:58:50","infoTime":"2021-06-17 21:57:42","infoDate":"2021-06-17"},{"sno":"500104005","sna":"YouBike2.0_雨聲街165巷口","tot":15,"sbi":8,"sarea":"士林區","mday":"2021-06-17 21:57:42","lat":25.10277,"lng":121.53357,"ar":"雨聲街/雨聲街165巷(西北側)","sareaen":"Shilin Dist","snaen":"YouBike2.0_Ln. 165， Yusheng St. Intersection","aren":"Ln. 165， Yusheng St. Intersection (Northwest)","bemp":7,"act":"1","srcUpdateTime":"2021-06-17 21:58:11","updateTime":"2021-06-17 21:58:50","infoTime":"2021-06-17 21:57:42","infoDate":"2021-06-17"},{"sno":"500104006","sna":"YouBike2.0_天和公園","tot":13,"sbi":9,"sarea":"士林區","mday":"2021-06-17 21:57:42","lat":25.12001,"lng":121.53342,"ar":"天母東路69巷30號(前方路側)","sareaen":"Shilin Dist","snaen":"YouBike2.0_Tianhe Park","aren":"No.30， Ln.69， Tianmu E. Rd. (Front)","bemp":4,"act":"1","srcUpdateTime":"2021-06-17 21:58:11","updateTime":"2021-06-17 21:58:50","infoTime":"2021-06-17 21:57:42","infoDate":"2021-06-17"},{"sno":"500104007","sna":"YouBike2.0_中山天母路口","tot":11,"sbi":5,"sarea":"士林區","mday":"2021-06-17 21:57:42","lat":25.11856,"lng":121.52964,"ar":"天母西路3-55號前人行道","sareaen":"Shilin Dist","snaen":"YouBike2.0_Zhongshan & Tianmu Rd. Intersection","aren":"No. 3-55， Tianmu W. Rd. (Front)","bemp":6,"act":"1","srcUpdateTime":"2021-06-17 21:58:11","updateTime":"2021-06-17 21:58:50","infoTime":"2021-06-17 21:57:42","infoDate":"2021-06-17"},{"sno":"500104008","sna":"YouBike2.0_天母運動公園","tot":15,"sbi":14,"sarea":"士林區","mday":"2021-06-17 21:57:42","lat":25.11633,"lng":121.53414,"ar":"忠誠路二段/忠誠路二段207巷(東南側)","sareaen":"Shilin Dist","snaen":"YouBike2.0_Tianmu Sports Park","aren":"Ln. 207， Sec.2， Zhongcheng Rd. (Southeast)","bemp":1,"act":"1","srcUpdateTime":"2021-06-17 21:58:11","updateTime":"2021-06-17 21:58:50","infoTime":"2021-06-17 21:57:42","infoDate":"2021-06-17"},{"sno":"500104009","sna":"YouBike2.0_臺北市立大學(天母校區)","tot":16,"sbi":3,"sarea":"士林區","mday":"2021-06-17 21:57:42","lat":25.11356,"lng":121.53718,"ar":"士東路276號至280號對面人行道","sareaen":"Shilin Dist","snaen":"YouBike2.0_University of Taipei (Tianmu Campus)","aren":"No. 276-280， Shidong Rd. (Opposite)","bemp":13,"act":"1","srcUpdateTime":"2021-06-17 21:58:11","updateTime":"2021-06-17 21:58:50","infoTime":"2021-06-17 21:57:42","infoDate":"2021-06-17"},{"sno":"500104010","sna":"YouBike2.0_忠誠路二段53巷","tot":18,"sbi":9,"sarea":"士林區","mday":"2021-06-17 21:57:42","lat":25.11127,"lng":121.53244,"ar":"忠誠路2段53巷7號(對面)","sareaen":"Shilin Dist","snaen":"YouBike2.0_Ln. 53， Sec. 2， Zhongcheng Rd.","aren":"No.7， Ln. 53， Sec. 2， Zhongcheng Rd. (Opposite)","bemp":8,"act":"1","srcUpdateTime":"2021-06-17 21:58:11","updateTime":"2021-06-17 21:58:50","infoTime":"2021-06-17 21:57:42","infoDate":"2021-06-17"},{"sno":"500104011","sna":"YouBike2.0_天母國中","tot":18,"sbi":6,"sarea":"士林區","mday":"2021-06-17 21:57:42","lat":25.11811,"lng":121.53875,"ar":"天母東路120號(斜前方)","sareaen":"Shilin Dist","snaen":"YouBike2.0_Tianmu Junior High School","aren":"No. 120， Tianmu E. Rd. (Front right)","bemp":12,"act":"1","srcUpdateTime":"2021-06-17 21:58:11","updateTime":"2021-06-17 21:58:50","infoTime":"2021-06-17 21:57:42","infoDate":"2021-06-17"},{"sno":"500104012","sna":"YouBike2.0_天母棒球場","tot":34,"sbi":3,"sarea":"士林區","mday":"2021-06-17 21:57:42","lat":25.11341,"lng":121.53195,"ar":"忠誠路二段122號(對面)","sareaen":"Shilin Dist","snaen":"YouBike2.0_Taipei Tianmu Baseball Stadium","aren":"No. 122， Sec. 2， Zhongcheng Rd. (Opposite)","bemp":15,"act":"1","srcUpdateTime":"2021-06-17 21:58:11","updateTime":"2021-06-17 21:58:50","infoTime":"2021-06-17 21:57:42","infoDate":"2021-06-17"},{"sno":"500104013","sna":"YouBike2.0_天母北天玉街口","tot":15,"sbi":5,"sarea":"士林區","mday":"2021-06-17 21:57:42","lat":25.12011,"lng":121.52652,"ar":"天母北路33號(前)","sareaen":"Shilin Dist","snaen":"YouBike2.0_Tianmu N. Rd. & Tianyu St. Intersection","aren":"No. 33， Tianmu N. Rd.","bemp":10,"act":"1","srcUpdateTime":"2021-06-17 21:58:11","updateTime":"2021-06-17 21:58:50","infoTime":"2021-06-17 21:57:42","infoDate":"2021-06-17"},{"sno":"500104014","sna":"YouBike2.0_蘭興公園","tot":16,"sbi":5,"sarea":"士林區","mday":"2021-06-17 21:57:42","lat":25.11184,"lng":121.52589,"ar":"中山北路六段/士東路(西北側)","sareaen":"Shilin Dist","snaen":"YouBike2.0_Lanxing Park","aren":"Sec. 6， Zhongshan N. Rd. & Shidong Rd. Intersection (Northwest)","bemp":11,"act":"1","srcUpdateTime":"2021-06-17 21:58:11","updateTime":"2021-06-17 21:58:50","infoTime":"2021-06-17 21:57:42","infoDate":"2021-06-17"},{"sno":"500104015","sna":"YouBike2.0_明勝公園","tot":14,"sbi":7,"sarea":"士林區","mday":"2021-06-17 21:57:42","lat":25.08009,"lng":121.51895,"ar":"承德路4段6巷71號(對面)","sareaen":"Shilin Dist","snaen":"YouBike2.0_Mingsheng Park","aren":"No. 71， Ln. 6， Sec.4， Chengde Rd. (Opposite)","bemp":7,"act":"1","srcUpdateTime":"2021-06-17 21:58:11","updateTime":"2021-06-17 21:58:50","infoTime":"2021-06-17 21:57:42","infoDate":"2021-06-17"},{"sno":"500104016","sna":"YouBike2.0_劍潭海外青年活動中心","tot":23,"sbi":13,"sarea":"士林區","mday":"2021-06-17 21:57:42","lat":25.07994,"lng":121.52426,"ar":"中山北路4段/通河街口","sareaen":"Shilin Dist","snaen":"YouBike2.0_Chientan Youth Activity Center","aren":"Sec. 4， Zhongshan N. Rd. & Tonghe St. Intersection","bemp":10,"act":"1","srcUpdateTime":"2021-06-17 21:58:11","updateTime":"2021-06-17 21:58:50","infoTime":"2021-06-17 21:57:42","infoDate":"2021-06-17"},{"sno":"500104018","sna":"YouBike2.0_忠誠路一段173巷口","tot":11,"sbi":4,"sarea":"士林區","mday":"2021-06-17 21:57:42","lat":25.10813,"lng":121.5304,"ar":"忠誠路一段177號(前)","sareaen":"Shilin Dist","snaen":"YouBike2.0_No. 173， Sec. 1， Zhongcheng Rd. Intersection","aren":"No. 177， Sec. 1， Zhongcheng Rd.","bemp":7,"act":"1","srcUpdateTime":"2021-06-17 21:58:11","updateTime":"2021-06-17 21:58:50","infoTime":"2021-06-17 21:57:42","infoDate":"2021-06-17"},{"sno":"500104019","sna":"YouBike2.0_雨農國小","tot":14,"sbi":2,"sarea":"士林區","mday":"2021-06-17 21:57:42","lat":25.10564,"lng":121.52916,"ar":"忠誠路一段127號(前)","sareaen":"Shilin Dist","snaen":"YouBike2.0_Yunong Elementary School","aren":"No. 127， Sec. 1， Zhongcheng Rd.","bemp":10,"act":"1","srcUpdateTime":"2021-06-17 21:58:11","updateTime":"2021-06-17 21:58:50","infoTime":"2021-06-17 21:57:42","infoDate":"2021-06-17"},{"sno":"500104020","sna":"YouBike2.0_忠誠公園","tot":14,"sbi":7,"sarea":"士林區","mday":"2021-06-17 21:57:42","lat":25.10399,"lng":121.52593,"ar":"忠誠路一段18號(對面)","sareaen":"Shilin Dist","snaen":"YouBike2.0_Zhongcheng Park","aren":"No. 18， Sec. 1， Zhongcheng Rd.","bemp":7,"act":"1","srcUpdateTime":"2021-06-17 21:58:11","updateTime":"2021-06-17 21:58:50","infoTime":"2021-06-17 21:57:42","infoDate":"2021-06-17"},{"sno":"500104021","sna":"YouBike2.0_芝山抽水站","tot":11,"sbi":4,"sarea":"士林區","mday":"2021-06-17 21:57:42","lat":25.10155,"lng":121.52832,"ar":"至誠路二段47-49號(前)","sareaen":"Shilin Dist","snaen":"YouBike2.0_Zhishan Pumping Plant","aren":"No. 47， Sec. 2， Zhicheng Rd.","bemp":6,"act":"1","srcUpdateTime":"2021-06-17 21:58:11","updateTime":"2021-06-17 21:58:50","infoTime":"2021-06-17 21:57:42","infoDate":"2021-06-17"},{"sno":"500104022","sna":"YouBike2.0_至誠路一段305巷口","tot":21,"sbi":8,"sarea":"士林區","mday":"2021-06-17 21:57:42","lat":25.10186,"lng":121.53083,"ar":"至誠路一段303號(對面)","sareaen":"Shilin Dist","snaen":"YouBike2.0_Ln. 305， Sec. 1， Zhicheng Rd. Intersection","aren":"No. 303， Sec. 1， Zhicheng Rd.","bemp":13,"act":"1","srcUpdateTime":"2021-06-17 21:58:11","updateTime":"2021-06-17 21:58:50","infoTime":"2021-06-17 21:57:42","infoDate":"2021-06-17"},{"sno":"500104023","sna":"YouBike2.0_華齡公園","tot":10,"sbi":7,"sarea":"士林區","mday":"2021-06-17 21:57:42","lat":25.08302,"lng":121.52069,"ar":"劍潭路76號(對面)","sareaen":"Shilin Dist","snaen":"YouBike2.0_Hualing Park","aren":"No. 76， Jiantan Rd. (Opposite)","bemp":3,"act":"1","srcUpdateTime":"2021-06-17 21:58:11","updateTime":"2021-06-17 21:58:50","infoTime":"2021-06-17 21:57:42","infoDate":"2021-06-17"},{"sno":"500104024","sna":"YouBike2.0_前港公園(福德宮)","tot":18,"sbi":10,"sarea":"士林區","mday":"2021-06-17 21:57:42","lat":25.08671,"lng":121.52096,"ar":"後港街134巷/後港街口","sareaen":"Shilin Dist","snaen":"YouBike2.0_Qiangang Park(Fude Temple)","aren":"Ln. 134， Hougang/Hougang St. Intersection","bemp":8,"act":"1","srcUpdateTime":"2021-06-17 21:58:11","updateTime":"2021-06-17 21:58:50","infoTime":"2021-06-17 21:57:42","infoDate":"2021-06-17"},{"sno":"500104025","sna":"YouBike2.0_華齡街185巷口","tot":12,"sbi":4,"sarea":"士林區","mday":"2021-06-17 21:57:42","lat":25.08828,"lng":121.51985,"ar":"華齡街188號(前)","sareaen":"Shilin Dist","snaen":"YouBike2.0_Ln. 185， Hualing St.","aren":"No. 188， Hualing St.","bemp":8,"act":"1","srcUpdateTime":"2021-06-17 21:58:11","updateTime":"2021-06-17 21:58:50","infoTime":"2021-06-17 21:57:42","infoDate":"2021-06-17"},{"sno":"500104026","sna":"YouBike2.0_前港公園(前港街)","tot":19,"sbi":9,"sarea":"士林區","mday":"2021-06-17 21:57:42","lat":25.0848,"lng":121.52125,"ar":"前港街48號(對面)","sareaen":"Shilin Dist","snaen":"YouBike2.0_Qiangang Park (Qiangang St)","aren":"No. 48， Qiangang St. (Opposite)","bemp":10,"act":"1","srcUpdateTime":"2021-06-17 21:58:11","updateTime":"2021-06-17 21:58:50","infoTime":"2021-06-17 21:57:42","infoDate":"2021-06-17"},{"sno":"500104027","sna":"YouBike2.0_百齡高中","tot":15,"sbi":3,"sarea":"士林區","mday":"2021-06-17 21:57:42","lat":25.08736,"lng":121.52272,"ar":"承德路四段179巷/承德路4段口","sareaen":"Shilin Dist","snaen":"YouBike2.0_Bailing High School","aren":"Ln. 179， Sec. 4， Chengde Rd. Intersection","bemp":12,"act":"1","srcUpdateTime":"2021-06-17 21:58:11","updateTime":"2021-06-17 21:58:50","infoTime":"2021-06-17 21:57:42","infoDate":"2021-06-17"},{"sno":"500104028","sna":"YouBike2.0_捷運芝山站(2號出口)","tot":21,"sbi":14,"sarea":"士林區","mday":"2021-06-17 21:57:42","lat":25.10364,"lng":121.52219,"ar":"福華路151號(對面)","sareaen":"Shilin Dist","snaen":"YouBike2.0_MRT Zhishan Station","aren":"No. 151， Fuhua Rd. (Opposite)","bemp":6,"act":"1","srcUpdateTime":"2021-06-17 21:58:11","updateTime":"2021-06-17 21:58:50","infoTime":"2021-06-17 21:57:42","infoDate":"2021-06-17"},{"sno":"500104029","sna":"YouBike2.0_臺灣戲曲中心","tot":14,"sbi":2,"sarea":"士林區","mday":"2021-06-17 21:57:42","lat":25.10208,"lng":121.51979,"ar":"文林路751號(南側)","sareaen":"Shilin Dist","snaen":"YouBike2.0_Taiwan Traditional Theatre Center","aren":"No. 751， Wenlin Rd. (South)","bemp":12,"act":"1","srcUpdateTime":"2021-06-17 21:58:11","updateTime":"2021-06-17 21:58:50","infoTime":"2021-06-17 21:57:42","infoDate":"2021-06-17"},{"sno":"500104030","sna":"YouBike2.0_捷運劍潭站(2號出口)","tot":43,"sbi":8,"sarea":"士林區","mday":"2021-06-17 21:57:42","lat":25.08288,"lng":121.52455,"ar":"基河路18號(對面)","sareaen":"Shilin Dist","snaen":"YouBike2.0_MRT Jianta Station","aren":"No.18， Jihe Rd. (Opposite)","bemp":35,"act":"1","srcUpdateTime":"2021-06-17 21:58:11","updateTime":"2021-06-17 21:58:50","infoTime":"2021-06-17 21:57:42","infoDate":"2021-06-17"},{"sno":"500104031","sna":"YouBike2.0_劍潭基河路口","tot":20,"sbi":7,"sarea":"士林區","mday":"2021-06-17 21:57:42","lat":25.08403,"lng":121.5249,"ar":"劍潭路基河路口(捷運站橋下空間)","sareaen":"Shilin Dist","snaen":"YouBike2.0_Jiantan Rd & Jihe Rd Intersection","aren":"Jiantan Rd. & Jihe Rd. Intersection","bemp":13,"act":"1","srcUpdateTime":"2021-06-17 21:58:11","updateTime":"2021-06-17 21:58:50","infoTime":"2021-06-17 21:57:42","infoDate":"2021-06-17"},{"sno":"500104032","sna":"YouBike2.0_志成公園","tot":15,"sbi":11,"sarea":"士林區","mday":"2021-06-17 21:57:42","lat":25.09667,"lng":121.53206,"ar":"中正路/雨農路口(西北側)","sareaen":"Shilin Dist","snaen":"YouBike2.0_Zhicheng Park","aren":"Jhongjheng Rd & Yunong Rd. Intersection (Northwest)","bemp":4,"act":"1","srcUpdateTime":"2021-06-17 21:58:11","updateTime":"2021-06-17 21:58:50","infoTime":"2021-06-17 21:57:42","infoDate":"2021-06-17"},{"sno":"500104033","sna":"YouBike2.0_福林國小","tot":14,"sbi":8,"sarea":"士林區","mday":"2021-06-17 21:57:42","lat":25.09896,"lng":121.53025,"ar":"福志路50號(對面)","sareaen":"Shilin Dist","snaen":"YouBike2.0_Fu-Lin Elementary School","aren":"No. 50， Fuzhi Rd. (Opposite)","bemp":6,"act":"1","srcUpdateTime":"2021-06-17 21:58:11","updateTime":"2021-06-17 21:58:50","infoTime":"2021-06-17 21:57:42","infoDate":"2021-06-17"},{"sno":"500104034","sna":"YouBike2.0_中山中正路口","tot":13,"sbi":7,"sarea":"士林區","mday":"2021-06-17 21:57:42","lat":25.09651,"lng":121.52753,"ar":"中山北路五段609號(前)","sareaen":"Shilin Dist","snaen":"YouBike2.0_Sec. 5， Jhongshan N. Rd & Jhongjheng Rd Intersection","aren":"No. 609， Sec. 5， Jhongshan N. Rd.","bemp":6,"act":"1","srcUpdateTime":"2021-06-17 21:58:11","updateTime":"2021-06-17 21:58:50","infoTime":"2021-06-17 21:57:42","infoDate":"2021-06-17"},{"sno":"500104035","sna":"YouBike2.0_士林運動中心","tot":14,"sbi":5,"sarea":"士林區","mday":"2021-06-17 21:57:42","lat":25.08911,"lng":121.52154,"ar":"士商路1號(前)","sareaen":"Shilin Dist","snaen":"YouBike2.0_Shihlin Sport Center","aren":"No. 1， Shishang Rd.","bemp":9,"act":"1","srcUpdateTime":"2021-06-17 21:58:11","updateTime":"2021-06-17 21:58:50","infoTime":"2021-06-17 21:57:42","infoDate":"2021-06-17"},{"sno":"500104036","sna":"YouBike2.0_陽明高中","tot":15,"sbi":10,"sarea":"士林區","mday":"2021-06-17 21:57:42","lat":25.09164,"lng":121.51706,"ar":"中正路510號(前)","sareaen":"Shilin Dist","snaen":"YouBike2.0_Yangming High School","aren":"No. 510， Zhongzheng Rd.","bemp":5,"act":"1","srcUpdateTime":"2021-06-17 21:58:11","updateTime":"2021-06-17 21:58:50","infoTime":"2021-06-17 21:57:42","infoDate":"2021-06-17"},{"sno":"500104037","sna":"YouBike2.0_兒童新樂園","tot":23,"sbi":6,"sarea":"士林區","mday":"2021-06-17 21:57:42","lat":25.09631,"lng":121.51449,"ar":"承德路五段55號(旁公車亭)","sareaen":"Shilin Dist","snaen":"YouBike2.0_Taipei Children's Amusement Park","aren":"No. 55， Sec. 5， Chengde Rd.","bemp":17,"act":"1","srcUpdateTime":"2021-06-17 21:58:11","updateTime":"2021-06-17 21:58:50","infoTime":"2021-06-17 21:57:42","infoDate":"2021-06-17"},{"sno":"500104038","sna":"YouBike2.0_臺北市立天文館","tot":23,"sbi":5,"sarea":"士林區","mday":"2021-06-17 21:57:42","lat":25.09598,"lng":121.51776,"ar":"基河路363號(前)","sareaen":"Shilin Dist","snaen":"YouBike2.0_Taipei Astronomical Museum","aren":"No. 363， Jihe Rd.","bemp":18,"act":"1","srcUpdateTime":"2021-06-17 21:58:11","updateTime":"2021-06-17 21:58:50","infoTime":"2021-06-17 21:57:42","infoDate":"2021-06-17"},{"sno":"500104039","sna":"YouBike2.0_華聲公園","tot":13,"sbi":5,"sarea":"士林區","mday":"2021-06-17 21:57:42","lat":25.09619,"lng":121.5223,"ar":"華聲街17號(南側路側)","sareaen":"Shilin Dist","snaen":"YouBike2.0_Huasheng Park","aren":"No. 17， Huasheng St. (South)","bemp":8,"act":"1","srcUpdateTime":"2021-06-17 21:58:11","updateTime":"2021-06-17 21:58:50","infoTime":"2021-06-17 21:57:42","infoDate":"2021-06-17"},{"sno":"500104040","sna":"YouBike2.0_福林公園","tot":17,"sbi":7,"sarea":"士林區","mday":"2021-06-17 21:57:42","lat":25.09419,"lng":121.52833,"ar":"福林路/中山北路五段(東北側)","sareaen":"Shilin Dist","snaen":"YouBike2.0_Fulin Park","aren":"Sec. 5， Zhongshan N. Rd. (Northwest)","bemp":10,"act":"1","srcUpdateTime":"2021-06-17 21:58:11","updateTime":"2021-06-17 21:58:50","infoTime":"2021-06-17 21:57:42","infoDate":"2021-06-17"},{"sno":"500104041","sna":"YouBike2.0_捷運士林站(2號出口)","tot":30,"sbi":11,"sarea":"士林區","mday":"2021-06-17 21:57:43","lat":25.09343,"lng":121.52642,"ar":"中山北路五段505巷44弄2號(對面)","sareaen":"Shilin Dist","snaen":"YouBike2.0_MRT Shilin Station (Exit 2)","aren":"No. 2， Aly. 44， Ln. 505， Sec. 5， Zhongshan N. Rd. (Opposite)","bemp":19,"act":"1","srcUpdateTime":"2021-06-17 21:58:11","updateTime":"2021-06-17 21:58:50","infoTime":"2021-06-17 21:57:43","infoDate":"2021-06-17"},{"sno":"500104042","sna":"YouBike2.0_銘傳大學","tot":15,"sbi":5,"sarea":"士林區","mday":"2021-06-17 21:57:43","lat":25.08771,"lng":121.52677,"ar":"中山北路五段250號(銘傳大學對側)","sareaen":"Shilin Dist","snaen":"YouBike2.0_Ming Chuan University Taipei Campus","aren":"No. 250， Sec. 5， Zhongshan N. Rd.","bemp":10,"act":"1","srcUpdateTime":"2021-06-17 21:58:11","updateTime":"2021-06-17 21:58:50","infoTime":"2021-06-17 21:57:43","infoDate":"2021-06-17"},{"sno":"500104043","sna":"YouBike2.0_士林高商","tot":26,"sbi":13,"sarea":"士林區","mday":"2021-06-17 21:57:43","lat":25.09435,"lng":121.51702,"ar":"士商路150號(校門旁)","sareaen":"Shilin Dist","snaen":"YouBike2.0_Shilin High School of Commerce","aren":"No. 150， Shishang Rd.","bemp":13,"act":"1","srcUpdateTime":"2021-06-17 21:58:11","updateTime":"2021-06-17 21:58:50","infoTime":"2021-06-17 21:57:43","infoDate":"2021-06-17"},{"sno":"500104044","sna":"YouBike2.0_蘭雅公園","tot":10,"sbi":3,"sarea":"士林區","mday":"2021-06-17 21:57:43","lat":25.10991,"lng":121.53039,"ar":"忠誠路二段/忠誠路二段40巷(西南側)","sareaen":"Shilin Dist","snaen":"YouBike2.0_Lanya Park","aren":"Ln. 40， Sec. 2， Zhongcheng Rd. Intersection (Southwest)","bemp":7,"act":"1","srcUpdateTime":"2021-06-17 21:58:11","updateTime":"2021-06-17 21:58:50","infoTime":"2021-06-17 21:57:43","infoDate":"2021-06-17"},{"sno":"500104045","sna":"YouBike2.0_聯合醫院陽明院區","tot":15,"sbi":9,"sarea":"士林區","mday":"2021-06-17 21:57:43","lat":25.10455,"lng":121.53195,"ar":"雨聲街105號(南側)","sareaen":"Shilin Dist","snaen":"YouBike2.0_Taipei City Hospital Yangming Branch","aren":"No. 105， Yusheng St. (South)","bemp":6,"act":"1","srcUpdateTime":"2021-06-17 21:58:11","updateTime":"2021-06-17 21:58:50","infoTime":"2021-06-17 21:57:43","infoDate":"2021-06-17"},{"sno":"500104046","sna":"YouBike2.0_捷運芝山站(1號出口)","tot":36,"sbi":20,"sarea":"士林區","mday":"2021-06-17 21:57:43","lat":25.10225,"lng":121.52286,"ar":"福華路114號(對面)","sareaen":"Shilin Dist","snaen":"YouBike2.0_MRT Zhishan Sta. (Exit 1)","aren":"No. 114， Fuhua Rd. (Opposite)","bemp":16,"act":"1","srcUpdateTime":"2021-06-17 21:58:11","updateTime":"2021-06-17 21:58:50","infoTime":"2021-06-17 21:57:43","infoDate":"2021-06-17"},{"sno":"500104047","sna":"YouBike2.0_至誠公園","tot":15,"sbi":5,"sarea":"士林區","mday":"2021-06-17 21:57:43","lat":25.10143,"lng":121.53585,"ar":"至誠路一段80號(對面)","sareaen":"Shilin Dist","snaen":"YouBike2.0_Zhicheng Park","aren":"No. 80， Sec. 1， Zhicheng Rd. (Opposite)","bemp":10,"act":"1","srcUpdateTime":"2021-06-17 21:58:11","updateTime":"2021-06-17 21:58:50","infoTime":"2021-06-17 21:57:43","infoDate":"2021-06-17"},{"sno":"500104048","sna":"YouBike2.0_原住民文化主題公園","tot":21,"sbi":9,"sarea":"士林區","mday":"2021-06-17 21:57:43","lat":25.10113,"lng":121.55159,"ar":"至善路二段280號(對面)","sareaen":"Shilin Dist","snaen":"YouBike2.0_Indigenous People's Park","aren":"No. 280， Sec. 2， Zhishan Rd. (Opposite)","bemp":12,"act":"1","srcUpdateTime":"2021-06-17 21:58:11","updateTime":"2021-06-17 21:58:50","infoTime":"2021-06-17 21:57:43","infoDate":"2021-06-17"},{"sno":"500104049","sna":"YouBike2.0_通河東街2段10巷口","tot":15,"sbi":9,"sarea":"士林區","mday":"2021-06-17 21:57:43","lat":25.09106,"lng":121.51502,"ar":"通河東街2段5號(對面)","sareaen":"Shilin Dist","snaen":"YouBike2.0_Ln. 10， Sec. 2， Tonghe E. St. Intersection","aren":"No. 5， Sec. 2， Tonghe E. St. (Opposite)","bemp":6,"act":"1","srcUpdateTime":"2021-06-17 21:58:11","updateTime":"2021-06-17 21:58:50","infoTime":"2021-06-17 21:57:43","infoDate":"2021-06-17"},{"sno":"500104050","sna":"YouBike2.0_梅林新村","tot":15,"sbi":6,"sarea":"士林區","mday":"2021-06-17 21:57:43","lat":25.09755,"lng":121.54036,"ar":"至善路一段/至善路一段138巷(北側)","sareaen":"Shilin Dist","snaen":"YouBike2.0_Meilin New Village","aren":"Sec. 1， Zhishan Rd & Ln. 138， Sec. 1， Zhishan Rd (North)","bemp":9,"act":"1","srcUpdateTime":"2021-06-17 21:58:11","updateTime":"2021-06-17 21:58:50","infoTime":"2021-06-17 21:57:43","infoDate":"2021-06-17"},{"sno":"500104051","sna":"YouBike2.0_延平北中正路口","tot":30,"sbi":1,"sarea":"士林區","mday":"2021-06-17 21:57:43","lat":25.08678,"lng":121.50948,"ar":"中正路613號(對面)","sareaen":"Shilin Dist","snaen":"YouBike2.0_Yanping N. Rd & Zhongzheng Rd Intersection","aren":"No. 403， Zhongzheng Rd","bemp":29,"act":"0","srcUpdateTime":"2021-06-17 21:58:11","updateTime":"2021-06-17 21:58:50","infoTime":"2021-06-17 21:57:43","infoDate":"2021-06-17"},{"sno":"500104052","sna":"YouBike2.0_重慶北路四段190巷口","tot":13,"sbi":3,"sarea":"士林區","mday":"2021-06-17 21:57:43","lat":25.08505,"lng":121.51166,"ar":"重慶北路四段198號(前)","sareaen":"Shilin Dist","snaen":"YouBike2.0_Ln. 190， Sec. 4， Chongqing N. Rd Intersection","aren":"No. 198， Sec. 4， Chongqing N. Rd","bemp":10,"act":"1","srcUpdateTime":"2021-06-17 21:58:11","updateTime":"2021-06-17 21:58:50","infoTime":"2021-06-17 21:57:43","infoDate":"2021-06-17"},{"sno":"500104053","sna":"YouBike2.0_重慶北葫東街口","tot":15,"sbi":5,"sarea":"士林區","mday":"2021-06-17 21:57:43","lat":25.08393,"lng":121.51169,"ar":"重慶北路四段177號(前)","sareaen":"Shilin Dist","snaen":"YouBike2.0_Sec. 4， Chongqing N. Rd.& Hudong St Intersection","aren":"No. 177， Sec. 4， Chongqing N. Rd.","bemp":10,"act":"1","srcUpdateTime":"2021-06-17 21:58:11","updateTime":"2021-06-17 21:58:50","infoTime":"2021-06-17 21:57:43","infoDate":"2021-06-17"},{"sno":"500104054","sna":"YouBike2.0_葫蘆國小","tot":20,"sbi":2,"sarea":"士林區","mday":"2021-06-17 21:57:43","lat":25.08254,"lng":121.5075,"ar":"環河北路三段/葫蘆街(東北側)","sareaen":"Shilin Dist","snaen":"YouBike2.0_Hulu Elementary School","aren":"Sec. 3， Huanhe N. Rd & Hulu St. (Northeast)","bemp":18,"act":"1","srcUpdateTime":"2021-06-17 21:58:11","updateTime":"2021-06-17 21:58:50","infoTime":"2021-06-17 21:57:43","infoDate":"2021-06-17"},{"sno":"500104055","sna":"YouBike2.0_士林3號廣場","tot":30,"sbi":12,"sarea":"士林區","mday":"2021-06-17 21:57:43","lat":25.10459,"lng":121.52417,"ar":"中山北路六段81號(旁)","sareaen":"Shilin Dist","snaen":"YouBike2.0_Shilin Plaza","aren":"No. 81， Sec 6， Zhongshan N. Rd.","bemp":18,"act":"1","srcUpdateTime":"2021-06-17 21:58:11","updateTime":"2021-06-17 21:58:50","infoTime":"2021-06-17 21:57:43","infoDate":"2021-06-17"},{"sno":"500104056","sna":"YouBike2.0_社正公園","tot":15,"sbi":2,"sarea":"士林區","mday":"2021-06-17 21:57:43","lat":25.08824,"lng":121.51054,"ar":"社中街39號(對面)","sareaen":"Shilin Dist","snaen":"YouBike2.0_Shezheng Park","aren":"No. 39， Shezhong St. (Opposite)","bemp":13,"act":"1","srcUpdateTime":"2021-06-17 21:58:11","updateTime":"2021-06-17 21:58:50","infoTime":"2021-06-17 21:57:43","infoDate":"2021-06-17"},{"sno":"500104057","sna":"YouBike2.0_社子國小","tot":15,"sbi":6,"sarea":"士林區","mday":"2021-06-17 21:57:43","lat":25.09058,"lng":121.50142,"ar":"社中街476號(對面)","sareaen":"Shilin Dist","snaen":"YouBike2.0_Shezi Elementary School","aren":"No. 476， Shezhong St. (Opposite)","bemp":9,"act":"1","srcUpdateTime":"2021-06-17 21:58:11","updateTime":"2021-06-17 21:58:50","infoTime":"2021-06-17 21:57:43","infoDate":"2021-06-17"},{"sno":"500104058","sna":"YouBike2.0_社中街384巷口","tot":18,"sbi":3,"sarea":"士林區","mday":"2021-06-17 21:57:43","lat":25.09346,"lng":121.50376,"ar":"通河西街二段194號(對面)","sareaen":"Shilin Dist","snaen":"YouBike2.0_Ln. 384， Shezhong St Intersection","aren":"No. 194， Sec. 2， Tonghe W. St. (Opposite)","bemp":15,"act":"1","srcUpdateTime":"2021-06-17 21:58:11","updateTime":"2021-06-17 21:58:50","infoTime":"2021-06-17 21:57:43","infoDate":"2021-06-17"},{"sno":"500104059","sna":"YouBike2.0_忠誠路一段138號","tot":15,"sbi":6,"sarea":"士林區","mday":"2021-06-17 21:57:43","lat":25.10641,"lng":121.52944,"ar":"忠誠路一段138號(斜前方)","sareaen":"Shilin Dist","snaen":"YouBike2.0_No. 138， Sec. 1， Zhongcheng Rd","aren":"No. 138， Sec. 1， Zhongcheng Rd. (Diagonally across)","bemp":9,"act":"1","srcUpdateTime":"2021-06-17 21:58:11","updateTime":"2021-06-17 21:58:50","infoTime":"2021-06-17 21:57:43","infoDate":"2021-06-17"},{"sno":"500104060","sna":"YouBike2.0_社子公園","tot":14,"sbi":3,"sarea":"士林區","mday":"2021-06-17 21:57:43","lat":25.0902,"lng":121.50622,"ar":"永平街20巷37弄/永平街20巷11弄(社子公園南側)","sareaen":"Shilin Dist","snaen":"YouBike2.0_Shezi Park","aren":"Aly. 37， Ln. 20， Yongping St & Aly. 11， Ln. 20， Yongping St Intersection.","bemp":11,"act":"1","srcUpdateTime":"2021-06-17 21:58:11","updateTime":"2021-06-17 21:58:50","infoTime":"2021-06-17 21:57:43","infoDate":"2021-06-17"},{"sno":"500104061","sna":"YouBike2.0_國立故宮博物院","tot":17,"sbi":5,"sarea":"士林區","mday":"2021-06-17 21:57:43","lat":25.09833,"lng":121.54788,"ar":"力行街8號(對面)","sareaen":"Shilin Dist","snaen":"YouBike2.0_National Palace Museum","aren":"No. 8， Lixing St. (Opposite)","bemp":12,"act":"1","srcUpdateTime":"2021-06-17 21:58:11","updateTime":"2021-06-17 21:58:50","infoTime":"2021-06-17 21:57:43","infoDate":"2021-06-17"},{"sno":"500104062","sna":"YouBike2.0_泰北高中","tot":17,"sbi":6,"sarea":"士林區","mday":"2021-06-17 21:57:43","lat":25.09763,"lng":121.53402,"ar":"福林路240號(前)","sareaen":"Shilin Dist","snaen":"YouBike2.0_Taibei High School","aren":"No. 240， Fulin Rd.","bemp":11,"act":"1","srcUpdateTime":"2021-06-17 21:58:11","updateTime":"2021-06-17 21:58:50","infoTime":"2021-06-17 21:57:43","infoDate":"2021-06-17"},{"sno":"500104063","sna":"YouBike2.0_後港公園","tot":15,"sbi":5,"sarea":"士林區","mday":"2021-06-17 21:57:43","lat":25.09312,"lng":121.51419,"ar":"通河東街二段26號(旁公園)","sareaen":"Shilin Dist","snaen":"YouBike2.0_Hougang Park","aren":"No. 26， Sec. 2， Tonghe E. St. (Side)","bemp":10,"act":"1","srcUpdateTime":"2021-06-17 21:58:11","updateTime":"2021-06-17 21:58:50","infoTime":"2021-06-17 21:57:43","infoDate":"2021-06-17"},{"sno":"500104064","sna":"YouBike2.0_重慶北路四段117號","tot":18,"sbi":7,"sarea":"士林區","mday":"2021-06-17 21:57:43","lat":25.08279,"lng":121.51219,"ar":"重慶北路四段117號(前)","sareaen":"Shilin Dist","snaen":"YouBike2.0_No. 117， Sec. 4， Chongqing N. Rd","aren":"No. 117， Sec. 4， Chongqing N. Rd.","bemp":11,"act":"1","srcUpdateTime":"2021-06-17 21:58:11","updateTime":"2021-06-17 21:58:50","infoTime":"2021-06-17 21:57:43","infoDate":"2021-06-17"},{"sno":"500104065","sna":"YouBike2.0_社子島島頭公園","tot":15,"sbi":9,"sarea":"士林區","mday":"2021-06-17 21:57:43","lat":25.10893,"lng":121.46639,"ar":"延平北路九段323號(後方堤外)","sareaen":"Shilin Dist","snaen":"YouBike2.0_Daotou Park","aren":"No. 323， Sec. 9， Yanping N. Rd. (Back)","bemp":6,"act":"1","srcUpdateTime":"2021-06-17 21:58:11","updateTime":"2021-06-17 21:58:50","infoTime":"2021-06-17 21:57:43","infoDate":"2021-06-17"},{"sno":"500104066","sna":"YouBike2.0_延平北路八段133巷口","tot":15,"sbi":1,"sarea":"士林區","mday":"2021-06-17 21:57:43","lat":25.10304,"lng":121.48297,"ar":"延平北路八段133巷42號(對面)","sareaen":"Shilin Dist","snaen":"YouBike2.0_Ln. 133， Sec. 8， Yanping N. Rd Intersection","aren":"No. 67， Ln. 133， Sec. 8， Yanping N. Rd Intersection. (Opposite)","bemp":14,"act":"1","srcUpdateTime":"2021-06-17 21:58:11","updateTime":"2021-06-17 21:58:50","infoTime":"2021-06-17 21:57:43","infoDate":"2021-06-17"},{"sno":"500104067","sna":"YouBike2.0_坤天亭","tot":14,"sbi":5,"sarea":"士林區","mday":"2021-06-17 21:57:43","lat":25.1064,"lng":121.4836,"ar":"延平北路八段96巷15號(前)","sareaen":"Shilin Dist","snaen":"YouBike2.0_Kuntian Temple","aren":"No. 15， Ln. 96， Sec. 8， Yanping N. Rd.","bemp":9,"act":"1","srcUpdateTime":"2021-06-17 21:58:11","updateTime":"2021-06-17 21:58:50","infoTime":"2021-06-17 21:57:43","infoDate":"2021-06-17"},{"sno":"500104068","sna":"YouBike2.0_社子島濕地解說小築","tot":15,"sbi":5,"sarea":"士林區","mday":"2021-06-17 21:57:43","lat":25.11314,"lng":121.48974,"ar":"社子島濕地解說小築","sareaen":"Shilin Dist","snaen":"YouBike2.0_Shezidao Wetlands Service Center","aren":"Shezidao Wetlands Service Center","bemp":10,"act":"1","srcUpdateTime":"2021-06-17 21:58:11","updateTime":"2021-06-17 21:58:50","infoTime":"2021-06-17 21:57:43","infoDate":"2021-06-17"},{"sno":"500104069","sna":"YouBike2.0_福安國中","tot":11,"sbi":6,"sarea":"士林區","mday":"2021-06-17 21:57:43","lat":25.10261,"lng":121.48819,"ar":"延平北路七段250號(前)","sareaen":"Shilin Dist","snaen":"YouBike2.0_Fu'an Junior High School","aren":"No. 250， Sec. 7， Yanping N. Rd.","bemp":5,"act":"1","srcUpdateTime":"2021-06-17 21:58:11","updateTime":"2021-06-17 21:58:50","infoTime":"2021-06-17 21:57:43","infoDate":"2021-06-17"},{"sno":"500105001","sna":"YouBike2.0_台北花木批發市場","tot":15,"sbi":5,"sarea":"文山區","mday":"2021-06-17 21:57:43","lat":25.00402,"lng":121.54074,"ar":"萬盛街/興隆路一段(西北側)","sareaen":"Wenshan Dist","snaen":"YouBike2.0_Taipei Pot Plant Market","aren":"Wancheng St. & Sec. 1， Xinrong Rd. (Northwest)","bemp":10,"act":"1","srcUpdateTime":"2021-06-17 21:58:11","updateTime":"2021-06-17 21:58:50","infoTime":"2021-06-17 21:57:43","infoDate":"2021-06-17"},{"sno":"500105002","sna":"YouBike2.0_捷運萬隆站(4號出口)","tot":21,"sbi":9,"sarea":"文山區","mday":"2021-06-17 21:57:43","lat":25.0027,"lng":121.53861,"ar":"羅斯福路5段210號(前)","sareaen":"Wenshan Dist","snaen":"YouBike2.0_MRT Wanlong Sta. (Exit 4)","aren":"No. 210， Sec. 5， Roosevelt Rd.","bemp":12,"act":"1","srcUpdateTime":"2021-06-17 21:58:11","updateTime":"2021-06-17 21:58:50","infoTime":"2021-06-17 21:57:43","infoDate":"2021-06-17"},{"sno":"500105003","sna":"YouBike2.0_捷運萬隆站(1號出口)","tot":14,"sbi":8,"sarea":"文山區","mday":"2021-06-17 21:57:43","lat":25.00115,"lng":121.53916,"ar":"羅斯福路五段250號(前)","sareaen":"Wenshan Dist","snaen":"YouBike2.0_MRT Wanlong Sta. (Exit 1)","aren":"No. 250， Sec. 5， Roosevelt Rd.","bemp":6,"act":"1","srcUpdateTime":"2021-06-17 21:58:11","updateTime":"2021-06-17 21:58:50","infoTime":"2021-06-17 21:57:43","infoDate":"2021-06-17"},{"sno":"500105004","sna":"YouBike2.0_萬和二號公園","tot":18,"sbi":9,"sarea":"文山區","mday":"2021-06-17 21:57:43","lat":25.00154,"lng":121.5364,"ar":"萬隆街255號(對面)","sareaen":"Wenshan Dist","snaen":"YouBike2.0_Wanhe 2nd Park","aren":"No. 255， Wanlong St.","bemp":9,"act":"1","srcUpdateTime":"2021-06-17 21:58:11","updateTime":"2021-06-17 21:58:50","infoTime":"2021-06-17 21:57:43","infoDate":"2021-06-17"},{"sno":"500105005","sna":"YouBike2.0_捷運萬隆站(2號出口)","tot":12,"sbi":2,"sarea":"文山區","mday":"2021-06-17 21:57:43","lat":25.00144,"lng":121.53983,"ar":"興隆路一段70巷/羅斯福路5段211巷26弄口","sareaen":"Wenshan Dist","snaen":"YouBike2.0_MRT Wanlong Sta. (Exit 2)","aren":"Ln. 70， Sec. 1， Xinrong Rd. & Aly. 26， Ln. 211， Sec. 5， Roosevelt Rd.","bemp":10,"act":"1","srcUpdateTime":"2021-06-17 21:58:11","updateTime":"2021-06-17 21:58:50","infoTime":"2021-06-17 21:57:43","infoDate":"2021-06-17"},{"sno":"500105006","sna":"YouBike2.0_景仁公園","tot":16,"sbi":12,"sarea":"文山區","mday":"2021-06-17 21:57:43","lat":24.99621,"lng":121.54043,"ar":"羅斯福路六段142巷1號(旁)","sareaen":"Wenshan Dist","snaen":"YouBike2.0_Jingren Park","aren":"No. 1， Ln. 142， Sec. 6， Roosevelt Rd.","bemp":4,"act":"1","srcUpdateTime":"2021-06-17 21:58:11","updateTime":"2021-06-17 21:58:50","infoTime":"2021-06-17 21:57:43","infoDate":"2021-06-17"},{"sno":"500105007","sna":"YouBike2.0_捷運景美站(2號出口)","tot":31,"sbi":9,"sarea":"文山區","mday":"2021-06-17 21:57:43","lat":24.99366,"lng":121.54124,"ar":"景文街1號(對面)","sareaen":"Wenshan Dist","snaen":"YouBike2.0_MRT Jingmei Sta. (Exit 2)","aren":"No. 1， Jingwen St. (Opposite)","bemp":22,"act":"1","srcUpdateTime":"2021-06-17 21:58:11","updateTime":"2021-06-17 21:58:50","infoTime":"2021-06-17 21:57:43","infoDate":"2021-06-17"},{"sno":"500105008","sna":"YouBike2.0_羅斯福景隆街口","tot":20,"sbi":7,"sarea":"文山區","mday":"2021-06-17 21:57:43","lat":24.99898,"lng":121.5403,"ar":"羅斯福路六段/景隆街口(東南側)","sareaen":"Wenshan Dist","snaen":"YouBike2.0_Roosevelt Jinglong St. Intersection","aren":"Sec. 6， Roosevelt Rd. & Jinglong St. Intersection (Southeast)","bemp":13,"act":"1","srcUpdateTime":"2021-06-17 21:58:11","updateTime":"2021-06-17 21:58:50","infoTime":"2021-06-17 21:57:43","infoDate":"2021-06-17"},{"sno":"500105011","sna":"YouBike2.0_興福國中","tot":25,"sbi":11,"sarea":"文山區","mday":"2021-06-17 21:57:43","lat":25.00465,"lng":121.54916,"ar":"福興路95巷/福興路63巷4弄口","sareaen":"Wenshan Dist","snaen":"YouBike2.0_Xing Fu Junior High School","aren":"Ln. 95， Fuxing Rd & Aly. 28， Ln. 63， Fuxing Rd. (Opposite)","bemp":14,"act":"1","srcUpdateTime":"2021-06-17 21:58:11","updateTime":"2021-06-17 21:58:50","infoTime":"2021-06-17 21:57:43","infoDate":"2021-06-17"},{"sno":"500105012","sna":"YouBike2.0_興隆路2段203巷","tot":18,"sbi":11,"sarea":"文山區","mday":"2021-06-17 21:57:43","lat":25.00346,"lng":121.54709,"ar":"興隆路2段203巷108號(對面)","sareaen":"Wenshan Dist","snaen":"YouBike2.0_Ln. 203， Sec. 2， Xinglong Rd","aren":"No. 108， Ln. 203， Sec. 2， Xinglong Rd (Opposite)","bemp":7,"act":"1","srcUpdateTime":"2021-06-17 21:58:11","updateTime":"2021-06-17 21:58:50","infoTime":"2021-06-17 21:57:43","infoDate":"2021-06-17"},{"sno":"500105013","sna":"YouBike2.0_景美運動公園","tot":11,"sbi":9,"sarea":"文山區","mday":"2021-06-17 21:57:43","lat":25.00219,"lng":121.54454,"ar":"景豐街79號(旁公園)","sareaen":"Wenshan Dist","snaen":"YouBike2.0_Jingmei Sports Park","aren":"No. 79， Jingfeng St. (Side)","bemp":2,"act":"1","srcUpdateTime":"2021-06-17 21:58:11","updateTime":"2021-06-17 21:58:50","infoTime":"2021-06-17 21:57:43","infoDate":"2021-06-17"},{"sno":"500106001","sna":"YouBike2.0_臺北自來水事業處","tot":20,"sbi":11,"sarea":"中正區","mday":"2021-06-17 21:57:43","lat":25.013741,"lng":121.53068,"ar":"思源街1號東側","sareaen":"Zhongzheng Dist","snaen":"YouBike2.0_Taipei Water Department","aren":"No.1， Siyuan St. (East)","bemp":9,"act":"1","srcUpdateTime":"2021-06-17 21:58:11","updateTime":"2021-06-17 21:58:50","infoTime":"2021-06-17 21:57:43","infoDate":"2021-06-17"},{"sno":"500106002","sna":"YouBike2.0_汀州思源街口東南側","tot":20,"sbi":14,"sarea":"中正區","mday":"2021-06-17 21:57:43","lat":25.014697,"lng":121.531908,"ar":"汀州路三段思源街口東南側","sareaen":"Zhongzheng Dist","snaen":"YouBike2.0_Tingzhou Rd. / Siyuan St. intersection (Southeast)","aren":"Sec. 3， Tingzhou Rd./ Siyuan St. intersection (Southeast)","bemp":6,"act":"1","srcUpdateTime":"2021-06-17 21:58:11","updateTime":"2021-06-17 21:58:50","infoTime":"2021-06-17 21:57:43","infoDate":"2021-06-17"},{"sno":"500106003","sna":"YouBike2.0_捷運公館站(1號出口)","tot":12,"sbi":10,"sarea":"中正區","mday":"2021-06-17 21:57:43","lat":25.014529,"lng":121.534374,"ar":"羅斯福路四段68號","sareaen":"Zhongzheng Dist","snaen":"YouBike2.0_MRT Gongguan Sta. (Exit 1)","aren":"No.68， Sec. 4， Roosevelt Rd.","bemp":2,"act":"1","srcUpdateTime":"2021-06-17 21:58:11","updateTime":"2021-06-17 21:58:50","infoTime":"2021-06-17 21:57:43","infoDate":"2021-06-17"},{"sno":"500106004","sna":"YouBike2.0_捷運公館站(4號出口)","tot":12,"sbi":6,"sarea":"中正區","mday":"2021-06-17 21:57:43","lat":25.015069,"lng":121.533828,"ar":"羅斯福路四段48號","sareaen":"Zhongzheng Dist","snaen":"YouBike2.0_MRT Gongguan Sta. (Exit 4)","aren":"No.48， Sec. 4， Roosevelt Rd.","bemp":6,"act":"1","srcUpdateTime":"2021-06-17 21:58:11","updateTime":"2021-06-17 21:58:50","infoTime":"2021-06-17 21:57:43","infoDate":"2021-06-17"},{"sno":"500106005","sna":"YouBike2.0_捷運古亭站(9號出口)","tot":20,"sbi":10,"sarea":"中正區","mday":"2021-06-17 21:57:43","lat":25.02694,"lng":121.52224,"ar":"羅斯福路二段100號(前方)","sareaen":"Zhongzheng Dist","snaen":"YouBike2.0_MRT Guting Sta. (Exit 9)","aren":"No. 100， Sec. 2， Roosevelt Rd","bemp":10,"act":"1","srcUpdateTime":"2021-06-17 21:58:11","updateTime":"2021-06-17 21:58:50","infoTime":"2021-06-17 21:57:43","infoDate":"2021-06-17"},{"sno":"500106006","sna":"YouBike2.0_捷運古亭站(2號出口)","tot":13,"sbi":0,"sarea":"中正區","mday":"2021-06-17 21:57:43","lat":25.0255,"lng":121.52346,"ar":"羅斯福路二段168號前","sareaen":"Zhongzheng Dist","snaen":"YouBike2.0_MRT Guting Sta. (Exit 2)","aren":"No. 168， Sec. 2， Roosevelt Rd","bemp":13,"act":"1","srcUpdateTime":"2021-06-17 21:58:11","updateTime":"2021-06-17 21:58:50","infoTime":"2021-06-17 21:57:43","infoDate":"2021-06-17"},{"sno":"500106007","sna":"YouBike2.0_捷運臺電大樓站(1號出口)","tot":20,"sbi":8,"sarea":"中正區","mday":"2021-06-17 21:57:43","lat":25.0197,"lng":121.529,"ar":"辛亥路一段/羅斯福路三段南側","sareaen":"Zhongzheng Dist","snaen":"YouBike2.0_MRT Taipower Building Sta. (Exit 1)","aren":"Sec. 1， Xinhai Rd & Sec. 3， Roosevelt Rd (South)","bemp":12,"act":"1","srcUpdateTime":"2021-06-17 21:58:11","updateTime":"2021-06-17 21:58:50","infoTime":"2021-06-17 21:57:43","infoDate":"2021-06-17"},{"sno":"500106008","sna":"YouBike2.0_客家文化主題公園","tot":15,"sbi":9,"sarea":"中正區","mday":"2021-06-17 21:57:43","lat":25.02069,"lng":121.52456,"ar":"師大路/金門街11巷口對側人行道","sareaen":"Zhongzheng Dist","snaen":"YouBike2.0_Hakka Cultural Park","aren":"Shida Rd & Ln. 11， Jinmen St (Opposite)","bemp":6,"act":"1","srcUpdateTime":"2021-06-17 21:58:11","updateTime":"2021-06-17 21:58:50","infoTime":"2021-06-17 21:57:43","infoDate":"2021-06-17"},{"sno":"500106009","sna":"YouBike2.0_河堤國小","tot":15,"sbi":6,"sarea":"中正區","mday":"2021-06-17 21:57:43","lat":25.02277,"lng":121.52289,"ar":"汀洲路二段182巷內186號旁","sareaen":"Zhongzheng Dist","snaen":"YouBike2.0_Taipei Municipal Heti Elementary School","aren":"No. 186， Ln. 182， Sec. 2， Tingzhou Rd","bemp":9,"act":"1","srcUpdateTime":"2021-06-17 21:58:11","updateTime":"2021-06-17 21:58:50","infoTime":"2021-06-17 21:57:43","infoDate":"2021-06-17"},{"sno":"500106010","sna":"YouBike2.0_紀州庵","tot":15,"sbi":11,"sarea":"中正區","mday":"2021-06-17 21:57:43","lat":25.02092,"lng":121.52049,"ar":"水源路/同安街口(東側)","sareaen":"Zhongzheng Dist","snaen":"YouBike2.0_Jizhouan Heritage Building","aren":"Shuiyuan Rd & Tong'an St Intersection (East)","bemp":4,"act":"1","srcUpdateTime":"2021-06-17 21:58:11","updateTime":"2021-06-17 21:58:50","infoTime":"2021-06-17 21:57:43","infoDate":"2021-06-17"},{"sno":"500106011","sna":"YouBike2.0_捷運臺電大樓站(5號出口)","tot":10,"sbi":9,"sarea":"中正區","mday":"2021-06-17 21:57:43","lat":25.02075,"lng":121.52771,"ar":"羅斯福路三段126號前","sareaen":"Zhongzheng Dist","snaen":"YouBike2.0_MRT Taipower Building Sta. (Exit 5)","aren":"No. 126， Sec. 3， Roosevelt Rd","bemp":1,"act":"1","srcUpdateTime":"2021-06-17 21:58:11","updateTime":"2021-06-17 21:58:50","infoTime":"2021-06-17 21:57:43","infoDate":"2021-06-17"},{"sno":"500106012","sna":"YouBike2.0_捷運臺電大樓站(4號出口)","tot":13,"sbi":8,"sarea":"中正區","mday":"2021-06-17 21:57:43","lat":25.02102,"lng":121.52751,"ar":"師大路/羅斯福路三段西側","sareaen":"Zhongzheng Dist","snaen":"YouBike2.0_MRT Taipower Building Sta. (Exit 4)","aren":"Shida Rd & Sec. 3， Roosevelt Rd (West)","bemp":5,"act":"1","srcUpdateTime":"2021-06-17 21:58:11","updateTime":"2021-06-17 21:58:50","infoTime":"2021-06-17 21:57:43","infoDate":"2021-06-17"},{"sno":"500106013","sna":"YouBike2.0_羅斯福三段金門街口","tot":15,"sbi":7,"sarea":"中正區","mday":"2021-06-17 21:57:43","lat":25.02345,"lng":121.52498,"ar":"羅斯福路三段2號前","sareaen":"Zhongzheng Dist","snaen":"YouBike2.0_Sec. 3， Roosevelt Rd & Jinmen St Intersection","aren":"No. 2， Sec. 3， Roosevelt Rd Intersection","bemp":8,"act":"1","srcUpdateTime":"2021-06-17 21:58:11","updateTime":"2021-06-17 21:58:50","infoTime":"2021-06-17 21:57:43","infoDate":"2021-06-17"},{"sno":"500106014","sna":"YouBike2.0_牯嶺公園","tot":12,"sbi":7,"sarea":"中正區","mday":"2021-06-17 21:57:43","lat":25.02338,"lng":121.51889,"ar":"廈門街113巷/牯嶺街口(西側)","sareaen":"Zhongzheng Dist","snaen":"YouBike2.0_Guling Park","aren":"Ln. 113， Xiamen St & Guling St. Intersection (West)","bemp":5,"act":"1","srcUpdateTime":"2021-06-17 21:58:11","updateTime":"2021-06-17 21:58:50","infoTime":"2021-06-17 21:57:43","infoDate":"2021-06-17"},{"sno":"500106015","sna":"YouBike2.0_捷運古亭站(8號出口)","tot":15,"sbi":7,"sarea":"中正區","mday":"2021-06-17 21:57:43","lat":25.02701,"lng":121.52164,"ar":"和平西路一段13-1號前方","sareaen":"Zhongzheng Dist","snaen":"YouBike2.0_MRT Guting Sta. (Exit 8)","aren":"No. 13-1， Sec. 1， Heping W. Rd.","bemp":8,"act":"1","srcUpdateTime":"2021-06-17 21:58:11","updateTime":"2021-06-17 21:58:50","infoTime":"2021-06-17 21:57:43","infoDate":"2021-06-17"},{"sno":"500106016","sna":"YouBike2.0_捷運古亭站(7號出口)","tot":15,"sbi":5,"sarea":"中正區","mday":"2021-06-17 21:57:43","lat":25.02805,"lng":121.52155,"ar":"羅斯福路二段44號前方","sareaen":"Zhongzheng Dist","snaen":"YouBike2.0_MRT Guting Sta. (Exit 7)","aren":"No. 44， Sec. 2， Roosevelt Rd.","bemp":10,"act":"1","srcUpdateTime":"2021-06-17 21:58:11","updateTime":"2021-06-17 21:58:50","infoTime":"2021-06-17 21:57:43","infoDate":"2021-06-17"},{"sno":"500106017","sna":"YouBike2.0_南昌公園","tot":21,"sbi":12,"sarea":"中正區","mday":"2021-06-17 21:57:43","lat":25.02698,"lng":121.52081,"ar":"和平西路一段與南昌路二段口西北側","sareaen":"Zhongzheng Dist","snaen":"YouBike2.0_Nanchang Park","aren":"Sec. 1， Heping W. Rd. & Sec. 2， Nanchang Rd. Intersection (Northwest)","bemp":9,"act":"1","srcUpdateTime":"2021-06-17 21:58:11","updateTime":"2021-06-17 21:58:50","infoTime":"2021-06-17 21:57:43","infoDate":"2021-06-17"},{"sno":"500106018","sna":"YouBike2.0_和平重慶路口","tot":25,"sbi":22,"sarea":"中正區","mday":"2021-06-17 21:57:43","lat":25.02723,"lng":121.51659,"ar":"和平西路一段/福州街口東側","sareaen":"Zhongzheng Dist","snaen":"YouBike2.0_Heping & Chongqing Rd. Intersection","aren":"Sec. 1， Heping W. Rd. & Fuzhou St. Intersection (East)","bemp":3,"act":"1","srcUpdateTime":"2021-06-17 21:58:11","updateTime":"2021-06-17 21:58:50","infoTime":"2021-06-17 21:57:43","infoDate":"2021-06-17"},{"sno":"500106019","sna":"YouBike2.0_孫立人將軍官邸","tot":23,"sbi":7,"sarea":"中正區","mday":"2021-06-17 21:57:43","lat":25.02933,"lng":121.51854,"ar":"南昌路一段136號前","sareaen":"Zhongzheng Dist","snaen":"YouBike2.0_Gen.Sun Li-Jen Residence","aren":"No. 136， Nanchang Rd.","bemp":16,"act":"1","srcUpdateTime":"2021-06-17 21:58:11","updateTime":"2021-06-17 21:58:50","infoTime":"2021-06-17 21:57:43","infoDate":"2021-06-17"},{"sno":"500106020","sna":"YouBike2.0_羅斯福路二段6巷口","tot":14,"sbi":7,"sarea":"中正區","mday":"2021-06-17 21:57:43","lat":25.02923,"lng":121.52058,"ar":"羅斯福路二段/羅斯福路二段6巷口","sareaen":"Zhongzheng Dist","snaen":"YouBike2.0_Ln.6， Sec.2， Roosevelt Rd.","aren":"Ln. 6， Sec. 2， Roosevelt Rd. Intersection","bemp":7,"act":"1","srcUpdateTime":"2021-06-17 21:58:11","updateTime":"2021-06-17 21:58:50","infoTime":"2021-06-17 21:57:43","infoDate":"2021-06-17"},{"sno":"500106021","sna":"YouBike2.0_金華杭州南路口","tot":21,"sbi":7,"sarea":"中正區","mday":"2021-06-17 21:57:43","lat":25.031,"lng":121.52211,"ar":"金華街口/杭州南路二段西北側","sareaen":"Zhongzheng Dist","snaen":"YouBike2.0_Jinhua & Hangzhou S. Rd. Intersection","aren":"Jinhua St. & Sec. 2， Hangzhou S. Rd. Intersection (Northwest))","bemp":14,"act":"1","srcUpdateTime":"2021-06-17 21:58:11","updateTime":"2021-06-17 21:58:50","infoTime":"2021-06-17 21:57:43","infoDate":"2021-06-17"},{"sno":"500106022","sna":"YouBike2.0_捷運中正紀念堂站(3號出口)","tot":18,"sbi":6,"sarea":"中正區","mday":"2021-06-17 21:57:43","lat":25.03239,"lng":121.51866,"ar":"金華街17號前方","sareaen":"Zhongzheng Dist","snaen":"YouBike2.0_MRT C.K.S. Memorial Hall Sta. (Exit 3)","aren":"No. 17， Jinhua St.","bemp":12,"act":"1","srcUpdateTime":"2021-06-17 21:58:11","updateTime":"2021-06-17 21:58:50","infoTime":"2021-06-17 21:57:43","infoDate":"2021-06-17"},{"sno":"500106023","sna":"YouBike2.0_捷運中正紀念堂站(4號出口)","tot":21,"sbi":12,"sarea":"中正區","mday":"2021-06-17 21:57:43","lat":25.03376,"lng":121.51772,"ar":"羅斯福路一段5號前方","sareaen":"Zhongzheng Dist","snaen":"YouBike2.0_MRT C.K.S. Memorial Hall Sta. (Exit 4)","aren":"No. 5， Sec. 1， Roosevelt Rd.","bemp":9,"act":"1","srcUpdateTime":"2021-06-17 21:58:11","updateTime":"2021-06-17 21:58:50","infoTime":"2021-06-17 21:57:43","infoDate":"2021-06-17"},{"sno":"500106024","sna":"YouBike2.0_重慶南海路口西南側","tot":16,"sbi":11,"sarea":"中正區","mday":"2021-06-17 21:57:43","lat":25.03124,"lng":121.51459,"ar":"重慶南路二段與南海路口西南側","sareaen":"Zhongzheng Dist","snaen":"YouBike2.0_Chongqing & Nanhai Rd. Intersection","aren":"Sec. 2， Chongqing S. Rd. & Nanhai Rd. Intersection (Southwest)","bemp":5,"act":"1","srcUpdateTime":"2021-06-17 21:58:11","updateTime":"2021-06-17 21:58:50","infoTime":"2021-06-17 21:57:43","infoDate":"2021-06-17"},{"sno":"500106026","sna":"YouBike2.0_古亭智慧圖書館","tot":14,"sbi":5,"sarea":"中正區","mday":"2021-06-17 21:57:43","lat":25.02543,"lng":121.51052,"ar":"中華路二段443巷45號前","sareaen":"Zhongzheng Dist","snaen":"YouBike2.0_Guting Intelligent Library","aren":"No. 45， Ln. 443， Sec. 2， Zhonghua Rd","bemp":9,"act":"1","srcUpdateTime":"2021-06-17 21:58:11","updateTime":"2021-06-17 21:58:50","infoTime":"2021-06-17 21:57:43","infoDate":"2021-06-17"},{"sno":"500106027","sna":"YouBike2.0_永昌公園","tot":15,"sbi":4,"sarea":"中正區","mday":"2021-06-17 21:57:43","lat":25.02643,"lng":121.50936,"ar":"詔安街224號前","sareaen":"Zhongzheng Dist","snaen":"YouBike2.0_Yongchang Park","aren":"No. 224， Zhao'an St.","bemp":11,"act":"1","srcUpdateTime":"2021-06-17 21:58:11","updateTime":"2021-06-17 21:58:50","infoTime":"2021-06-17 21:57:43","infoDate":"2021-06-17"},{"sno":"500106028","sna":"YouBike2.0_中華路二段409巷口","tot":15,"sbi":5,"sarea":"中正區","mday":"2021-06-17 21:57:43","lat":25.02598,"lng":121.50806,"ar":"中華路二段403號前","sareaen":"Zhongzheng Dist","snaen":"YouBike2.0_Ln. 409， Sec. 2， Zhonghua Rd","aren":"No. 403， Sec. 2， Zhonghua Rd.","bemp":10,"act":"1","srcUpdateTime":"2021-06-17 21:58:11","updateTime":"2021-06-17 21:58:50","infoTime":"2021-06-17 21:57:43","infoDate":"2021-06-17"},{"sno":"500106030","sna":"YouBike2.0_南海和平路口西南側","tot":19,"sbi":4,"sarea":"中正區","mday":"2021-06-17 21:57:43","lat":25.03024,"lng":121.50904,"ar":"南海路與和平西路二段西南側","sareaen":"Zhongzheng Dist","snaen":"YouBike2.0_Nanhai Rd & Sec. 2， Heping W. Rd (Southwest)","aren":"Nanhai Rd & Sec. 2， Heping W. Rd (Southwest)","bemp":15,"act":"1","srcUpdateTime":"2021-06-17 21:58:11","updateTime":"2021-06-17 21:58:50","infoTime":"2021-06-17 21:57:43","infoDate":"2021-06-17"},{"sno":"500106037","sna":"YouBike2.0_水源路11-1號旁","tot":19,"sbi":6,"sarea":"中正區","mday":"2021-06-17 21:57:43","lat":25.01602,"lng":121.52565,"ar":"水源路11-1號(旁)","sareaen":"Zhongzheng Dist","snaen":"YouBike2.0_No. 11-1， Shuiyuan Rd","aren":"No. 11-1， Shuiyuan Rd.","bemp":13,"act":"1","srcUpdateTime":"2021-06-17 21:58:11","updateTime":"2021-06-17 21:58:50","infoTime":"2021-06-17 21:57:43","infoDate":"2021-06-17"},{"sno":"500106038","sna":"YouBike2.0_南門國中","tot":21,"sbi":8,"sarea":"中正區","mday":"2021-06-17 21:57:43","lat":25.03543,"lng":121.50834,"ar":"廣州街8巷/廣州街口東南側","sareaen":"Zhongzheng Dist","snaen":"YouBike2.0_Nan Men Junior High School","aren":"Ln. 8， Guangzhou St/Guangzhou St Intersection. (Southeast)","bemp":13,"act":"1","srcUpdateTime":"2021-06-17 21:58:11","updateTime":"2021-06-17 21:58:50","infoTime":"2021-06-17 21:57:43","infoDate":"2021-06-17"},{"sno":"500106039","sna":"YouBike2.0_捷運小南門站(2號出口)","tot":18,"sbi":8,"sarea":"中正區","mday":"2021-06-17 21:57:43","lat":25.03567,"lng":121.51006,"ar":"愛國西路30號之2前方","sareaen":"Zhongzheng Dist","snaen":"YouBike2.0_MRT Xiaonanmen Sta. (Exit 2)","aren":"No. 30-2， Aiguo West Rd.","bemp":10,"act":"1","srcUpdateTime":"2021-06-17 21:58:11","updateTime":"2021-06-17 21:58:50","infoTime":"2021-06-17 21:57:43","infoDate":"2021-06-17"},{"sno":"500106040","sna":"YouBike2.0_介壽公園","tot":23,"sbi":4,"sarea":"中正區","mday":"2021-06-17 21:57:43","lat":25.03907,"lng":121.5138,"ar":"貴陽街懷寧街口(東北側)","sareaen":"Zhongzheng Dist","snaen":"YouBike2.0_Jieshou Park","aren":"Guiyang St & Huaining St Intersection (Northeast)","bemp":19,"act":"1","srcUpdateTime":"2021-06-17 21:58:11","updateTime":"2021-06-17 21:58:50","infoTime":"2021-06-17 21:57:43","infoDate":"2021-06-17"},{"sno":"500106042","sna":"YouBike2.0_華山文創園區","tot":39,"sbi":8,"sarea":"中正區","mday":"2021-06-17 21:57:43","lat":25.04367,"lng":121.52849,"ar":"忠孝東路二段41號","sareaen":"Zhongzheng Dist","snaen":"YouBike2.0_Huashan 1914 Creative Park","aren":"No. 41， Sec. 2， Zhongxiao E. Rd.","bemp":31,"act":"1","srcUpdateTime":"2021-06-17 21:58:11","updateTime":"2021-06-17 21:58:50","infoTime":"2021-06-17 21:57:43","infoDate":"2021-06-17"},{"sno":"500106043","sna":"YouBike2.0_捷運善導寺站(1號出口)","tot":17,"sbi":5,"sarea":"中正區","mday":"2021-06-17 21:57:43","lat":25.04527,"lng":121.5222,"ar":"忠孝東路一段7號","sareaen":"Zhongzheng Dist","snaen":"YouBike2.0_MRT Shandao Temple Sta (Exit 1)","aren":"No. 7， Sec. 1， Zhongxiao E. Rd.","bemp":12,"act":"1","srcUpdateTime":"2021-06-17 21:58:11","updateTime":"2021-06-17 21:58:50","infoTime":"2021-06-17 21:57:43","infoDate":"2021-06-17"},{"sno":"500106044","sna":"YouBike2.0_濟南紹興路口","tot":20,"sbi":5,"sarea":"中正區","mday":"2021-06-17 21:57:43","lat":25.04193,"lng":121.52459,"ar":"濟南紹興路口東南側","sareaen":"Zhongzheng Dist","snaen":"YouBike2.0_Jinan Rd & Shaoxing S. St Intersection","aren":"Jinan Rd & Shaoxing S. St Intersection. (Southeast)","bemp":15,"act":"1","srcUpdateTime":"2021-06-17 21:58:11","updateTime":"2021-06-17 21:58:50","infoTime":"2021-06-17 21:57:43","infoDate":"2021-06-17"},{"sno":"500106046","sna":"YouBike2.0_林森仁愛路口","tot":13,"sbi":2,"sarea":"中正區","mday":"2021-06-17 21:57:44","lat":25.03915,"lng":121.52163,"ar":"林森南路與仁愛路一段西北側","sareaen":"Zhongzheng Dist","snaen":"YouBike2.0_Linsen S. Rd & Sec 1， Ren'ai Rd Intersection","aren":"Linsen S. Rd & Section 1， Ren'ai Rd Intersection. (Northwest)","bemp":11,"act":"1","srcUpdateTime":"2021-06-17 21:58:11","updateTime":"2021-06-17 21:58:50","infoTime":"2021-06-17 21:57:44","infoDate":"2021-06-17"},{"sno":"500106047","sna":"YouBike2.0_中正運動中心","tot":20,"sbi":6,"sarea":"中正區","mday":"2021-06-17 21:57:44","lat":25.03786,"lng":121.51985,"ar":"信義路一段1號前","sareaen":"Zhongzheng Dist","snaen":"YouBike2.0_Zhongzheng Sports Center","aren":"No. 1， Sec 1， Xinyi Rd.","bemp":14,"act":"1","srcUpdateTime":"2021-06-17 21:58:11","updateTime":"2021-06-17 21:58:50","infoTime":"2021-06-17 21:57:44","infoDate":"2021-06-17"},{"sno":"500106048","sna":"YouBike2.0_信義杭州路口","tot":18,"sbi":0,"sarea":"中正區","mday":"2021-06-17 21:57:44","lat":25.0357,"lng":121.5241,"ar":"信義路一段21號前","sareaen":"Zhongzheng Dist","snaen":"YouBike2.0_Sec 1， Xinyi Rd & Hangzhou S. Rd Intersection","aren":"No. 21， Sec 1， Xinyi Rd.","bemp":18,"act":"1","srcUpdateTime":"2021-06-17 21:58:11","updateTime":"2021-06-17 21:58:50","infoTime":"2021-06-17 21:57:44","infoDate":"2021-06-17"},{"sno":"500106049","sna":"YouBike2.0_捷運善導寺站(3號出口)","tot":20,"sbi":9,"sarea":"中正區","mday":"2021-06-17 21:57:44","lat":25.04428,"lng":121.52336,"ar":"林森南路1號南側","sareaen":"Zhongzheng Dist","snaen":"YouBike2.0_MRT Shandao Temple Sta (Exit 3)","aren":"No. 21， Linsen S. Rd. (South)","bemp":11,"act":"1","srcUpdateTime":"2021-06-17 21:58:11","updateTime":"2021-06-17 21:58:50","infoTime":"2021-06-17 21:57:44","infoDate":"2021-06-17"},{"sno":"500106050","sna":"YouBike2.0_捷運小南門站(1號出口)","tot":46,"sbi":13,"sarea":"中正區","mday":"2021-06-17 21:57:44","lat":25.03648,"lng":121.50951,"ar":"愛國西路/延平南路(西北側)","sareaen":"Zhongzheng Dist","snaen":"YouBike2.0_MRT Xiaonanmen Sta. (Exit 1)","aren":"Aiguo E. Rd. & Yanping S. Rd Intersection (Northwest)","bemp":33,"act":"1","srcUpdateTime":"2021-06-17 21:58:11","updateTime":"2021-06-17 21:58:50","infoTime":"2021-06-17 21:57:44","infoDate":"2021-06-17"},{"sno":"500106051","sna":"YouBike2.0_延平南路133巷口","tot":17,"sbi":5,"sarea":"中正區","mday":"2021-06-17 21:57:44","lat":25.03792,"lng":121.50846,"ar":"延平南路162號對側","sareaen":"Zhongzheng Dist","snaen":"YouBike2.0_Ln. 133， Yanping S. Rd Intersection","aren":"No.162， Yanping S. Rd. (Opposite)","bemp":12,"act":"1","srcUpdateTime":"2021-06-17 21:58:11","updateTime":"2021-06-17 21:58:50","infoTime":"2021-06-17 21:57:44","infoDate":"2021-06-17"},{"sno":"500106052","sna":"YouBike2.0_捷運西門站(2號出口)","tot":24,"sbi":11,"sarea":"中正區","mday":"2021-06-17 21:57:44","lat":25.0416,"lng":121.50842,"ar":"中華路一段59號旁","sareaen":"Zhongzheng Dist","snaen":"YouBike2.0_MRT Ximen Sta (Exit 2)","aren":"No. 59， Sec. 1， Zhonghua Rd.","bemp":13,"act":"1","srcUpdateTime":"2021-06-17 21:58:11","updateTime":"2021-06-17 21:58:50","infoTime":"2021-06-17 21:57:44","infoDate":"2021-06-17"},{"sno":"500106053","sna":"YouBike2.0_寶慶博愛路口","tot":19,"sbi":6,"sarea":"中正區","mday":"2021-06-17 21:57:44","lat":25.04129,"lng":121.5112,"ar":"博愛路162號","sareaen":"Zhongzheng Dist","snaen":"YouBike2.0_Baoqing Rd & Bo'ai Rd Intersection","aren":"No. 162， Bo'ai Rd.","bemp":13,"act":"1","srcUpdateTime":"2021-06-17 21:58:11","updateTime":"2021-06-17 21:58:50","infoTime":"2021-06-17 21:57:44","infoDate":"2021-06-17"},{"sno":"500106055","sna":"YouBike2.0_臺北市立大學(博愛校區)","tot":49,"sbi":13,"sarea":"中正區","mday":"2021-06-17 21:57:44","lat":25.03545,"lng":121.51327,"ar":"愛國西路1號(前)","sareaen":"Zhongzheng Dist","snaen":"YouBike2.0_University of Taipei Boai Campus","aren":"No. 1， Aiguo W. Rd.","bemp":36,"act":"1","srcUpdateTime":"2021-06-17 21:58:11","updateTime":"2021-06-17 21:58:50","infoTime":"2021-06-17 21:57:44","infoDate":"2021-06-17"},{"sno":"500106056","sna":"YouBike2.0_國家圖書館","tot":16,"sbi":7,"sarea":"中正區","mday":"2021-06-17 21:57:44","lat":25.03763,"lng":121.51709,"ar":"中山南路20號前","sareaen":"Zhongzheng Dist","snaen":"YouBike2.0_National Central Library","aren":"No. 20， Zhongshan S. Rd.","bemp":9,"act":"1","srcUpdateTime":"2021-06-17 21:58:11","updateTime":"2021-06-17 21:58:50","infoTime":"2021-06-17 21:57:44","infoDate":"2021-06-17"},{"sno":"500106057","sna":"YouBike2.0_市民金山路口","tot":18,"sbi":14,"sarea":"中正區","mday":"2021-06-17 21:57:44","lat":25.0459,"lng":121.53068,"ar":"金山市民大道口南側","sareaen":"Zhongzheng Dist","snaen":"YouBike2.0_Civic Blvd & Jinshan N. Rd Intersection","aren":"Jinshan N. Rd & Civic Blvd Intersection. (South)","bemp":4,"act":"1","srcUpdateTime":"2021-06-17 21:58:11","updateTime":"2021-06-17 21:58:50","infoTime":"2021-06-17 21:57:44","infoDate":"2021-06-17"},{"sno":"500106059","sna":"YouBike2.0_中山堂","tot":13,"sbi":5,"sarea":"中正區","mday":"2021-06-17 21:57:44","lat":25.04412,"lng":121.51025,"ar":"武昌街一段與延平南路口","sareaen":"Zhongzheng Dist","snaen":"YouBike2.0_Zhongshan Hall","aren":"Sec. 1， Wuchang St & Yanping South Rd Intersection.","bemp":8,"act":"1","srcUpdateTime":"2021-06-17 21:58:11","updateTime":"2021-06-17 21:58:50","infoTime":"2021-06-17 21:57:44","infoDate":"2021-06-17"},{"sno":"500106060","sna":"YouBike2.0_中華漢口街口","tot":19,"sbi":10,"sarea":"中正區","mday":"2021-06-17 21:57:44","lat":25.04581,"lng":121.5096,"ar":"中華路一段與漢口街一段路口","sareaen":"Zhongzheng Dist","snaen":"YouBike2.0_Sec. 1， Zhonghua Rd & Hankou St Intersection","aren":"Sec. 1， Zhonghua Rd & Sec. 1， Hankou St Intersection","bemp":9,"act":"1","srcUpdateTime":"2021-06-17 21:58:11","updateTime":"2021-06-17 21:58:50","infoTime":"2021-06-17 21:57:44","infoDate":"2021-06-17"},{"sno":"500106061","sna":"YouBike2.0_中華路一段21巷口","tot":22,"sbi":12,"sarea":"中正區","mday":"2021-06-17 21:57:44","lat":25.04677,"lng":121.50989,"ar":"中華路一段11號(斜前方)","sareaen":"Zhongzheng Dist","snaen":"YouBike2.0_Ln. 21， Sec. 1， Zhonghua Rd Intersection","aren":"No. 11， Sec. 1， Zhonghua Rd. (Front right)","bemp":10,"act":"1","srcUpdateTime":"2021-06-17 21:58:11","updateTime":"2021-06-17 21:58:50","infoTime":"2021-06-17 21:57:44","infoDate":"2021-06-17"},{"sno":"500106062","sna":"YouBike2.0_捷運臺大醫院站(4號出口)","tot":16,"sbi":10,"sarea":"中正區","mday":"2021-06-17 21:57:44","lat":25.04297,"lng":121.51643,"ar":"常德街1號(公園路側)","sareaen":"Zhongzheng Dist","snaen":"YouBike2.0_MRT NTU Hospital Sta. (Exit 4)","aren":"No. 1， Changde St. (Gongyuan Rd)","bemp":6,"act":"1","srcUpdateTime":"2021-06-17 21:58:11","updateTime":"2021-06-17 21:58:50","infoTime":"2021-06-17 21:57:44","infoDate":"2021-06-17"},{"sno":"500107001","sna":"YouBike2.0_通北街65巷口","tot":16,"sbi":7,"sarea":"中山區","mday":"2021-06-17 21:57:44","lat":25.08251,"lng":121.54004,"ar":"通北街/通北街65巷口(東北側)","sareaen":"Zhongshan Dist","snaen":"YouBike2.0_Ln. 65， Tongbei St.","aren":"Tongbei /Ln. 65， Tongbei St. Intersection","bemp":9,"act":"1","srcUpdateTime":"2021-06-17 21:58:11","updateTime":"2021-06-17 21:58:50","infoTime":"2021-06-17 21:57:44","infoDate":"2021-06-17"},{"sno":"500107002","sna":"YouBike2.0_圓山風景區","tot":15,"sbi":7,"sarea":"中山區","mday":"2021-06-17 21:57:44","lat":25.07805,"lng":121.5295,"ar":"北安路/北安路77巷口(西北側)","sareaen":"Zhongshan Dist","snaen":"YouBike2.0_Yuanshan Scenic Area","aren":"Bei'an Rd./Ln. 77， Bei'an Rd. Intersection","bemp":8,"act":"1","srcUpdateTime":"2021-06-17 21:58:11","updateTime":"2021-06-17 21:58:50","infoTime":"2021-06-17 21:57:44","infoDate":"2021-06-17"},{"sno":"500107003","sna":"YouBike2.0_樂群二堤頂大道口","tot":20,"sbi":8,"sarea":"中山區","mday":"2021-06-17 21:57:44","lat":25.0803,"lng":121.56251,"ar":"堤頂大道二段382號(旁)","sareaen":"Zhongshan Dist","snaen":"YouBike2.0_Lequn 2nd & Tiding Blvd. Intersection","aren":"No. 382， Tiding Blvd.","bemp":12,"act":"1","srcUpdateTime":"2021-06-17 21:58:11","updateTime":"2021-06-17 21:58:50","infoTime":"2021-06-17 21:57:44","infoDate":"2021-06-17"},{"sno":"500107004","sna":"YouBike2.0_劍潭社區","tot":13,"sbi":9,"sarea":"中山區","mday":"2021-06-17 21:57:44","lat":25.08524,"lng":121.53748,"ar":"通北街146巷2弄2號(對面公園)","sareaen":"Zhongshan Dist","snaen":"YouBike2.0_Jiantan Community","aren":"No. 2， Aly. 2， Ln. 146， Tongbei St. (Opposite)","bemp":4,"act":"1","srcUpdateTime":"2021-06-17 21:58:11","updateTime":"2021-06-17 21:58:50","infoTime":"2021-06-17 21:57:44","infoDate":"2021-06-17"},{"sno":"500107005","sna":"YouBike2.0_培英公園","tot":14,"sbi":7,"sarea":"中山區","mday":"2021-06-17 21:57:44","lat":25.08258,"lng":121.54462,"ar":"崇實路/大直街62巷(東南側)","sareaen":"Zhongshan Dist","snaen":"YouBike2.0_Peiying Park","aren":"Chongshi/Ln. 62， Dajhih St. Intersection","bemp":7,"act":"1","srcUpdateTime":"2021-06-17 21:58:11","updateTime":"2021-06-17 21:58:50","infoTime":"2021-06-17 21:57:44","infoDate":"2021-06-17"},{"sno":"500107006","sna":"YouBike2.0_樂群二明水路口","tot":20,"sbi":9,"sarea":"中山區","mday":"2021-06-17 21:57:44","lat":25.08009,"lng":121.55226,"ar":"樂群二路/明水路口(東北側)","sareaen":"Zhongshan Dist","snaen":"YouBike2.0_Lequn 2nd & Mingshui Rd. Intersection","aren":"Lequn 2nd/Mingshui Rd. Intersection","bemp":11,"act":"1","srcUpdateTime":"2021-06-17 21:58:11","updateTime":"2021-06-17 21:58:50","infoTime":"2021-06-17 21:57:44","infoDate":"2021-06-17"},{"sno":"500107007","sna":"YouBike2.0_北安大直街口","tot":15,"sbi":3,"sarea":"中山區","mday":"2021-06-17 21:57:44","lat":25.08474,"lng":121.54968,"ar":"北安路676號前人行道","sareaen":"Zhongshan Dist","snaen":"YouBike2.0_Bei'an & Dajhih St. Intersection","aren":"No. 676， Bei'an Rd.","bemp":12,"act":"1","srcUpdateTime":"2021-06-17 21:58:11","updateTime":"2021-06-17 21:58:50","infoTime":"2021-06-17 21:57:44","infoDate":"2021-06-17"},{"sno":"500107008","sna":"YouBike2.0_捷運劍南路站(2號出口)","tot":38,"sbi":6,"sarea":"中山區","mday":"2021-06-17 21:57:44","lat":25.08401,"lng":121.55535,"ar":"敬業三路11號(植福路側對面)","sareaen":"Zhongshan Dist","snaen":"YouBike2.0_MRT Jiannan Rd. Station (Exit 2)","aren":"No. 11， Jingye 3rd Rd. (Opposite)","bemp":32,"act":"1","srcUpdateTime":"2021-06-17 21:58:11","updateTime":"2021-06-17 21:58:50","infoTime":"2021-06-17 21:57:44","infoDate":"2021-06-17"},{"sno":"500107009","sna":"YouBike2.0_樂群二敬業三路口","tot":20,"sbi":13,"sarea":"中山區","mday":"2021-06-17 21:57:44","lat":25.07985,"lng":121.55609,"ar":"敬業三路155號(前)","sareaen":"Zhongshan Dist","snaen":"YouBike2.0_Lequn 2nd & Jingye 3rd Rd. Intersection","aren":"No. 155， Jingye 3rd Rd.","bemp":7,"act":"1","srcUpdateTime":"2021-06-17 21:58:11","updateTime":"2021-06-17 21:58:50","infoTime":"2021-06-17 21:57:44","infoDate":"2021-06-17"},{"sno":"500107010","sna":"YouBike2.0_樂群二敬業四路口","tot":18,"sbi":12,"sarea":"中山區","mday":"2021-06-17 21:57:44","lat":25.07976,"lng":121.55813,"ar":"樂群二路186號","sareaen":"Zhongshan Dist","snaen":"YouBike2.0_Lequn 2nd & Jingye 4th Rd. Intersection","aren":"No. 186， Lecyun 2nd Rd.","bemp":6,"act":"1","srcUpdateTime":"2021-06-17 21:58:11","updateTime":"2021-06-17 21:58:50","infoTime":"2021-06-17 21:57:44","infoDate":"2021-06-17"},{"sno":"500107011","sna":"YouBike2.0_捷運大直站(3號出口)","tot":34,"sbi":12,"sarea":"中山區","mday":"2021-06-17 21:57:44","lat":25.07923,"lng":121.5473,"ar":"北安路536號(旁)","sareaen":"Zhongshan Dist","snaen":"YouBike2.0_Dazhi Station (Exit 3)","aren":"No. 536， Bei'an Rd.","bemp":22,"act":"1","srcUpdateTime":"2021-06-17 21:58:11","updateTime":"2021-06-17 21:58:50","infoTime":"2021-06-17 21:57:44","infoDate":"2021-06-17"},{"sno":"500108001","sna":"YouBike2.0_文湖街21巷118弄口","tot":14,"sbi":6,"sarea":"內湖區","mday":"2021-06-17 21:57:44","lat":25.09122,"lng":121.55961,"ar":"文湖街21巷118弄6-10號(前)","sareaen":"Neihu Dist","snaen":"YouBike2.0_Aly. 118， Ln. 21， Wunhu St.","aren":"No. 6-10， Aly. 118， Ln. 21， Wunhu St.","bemp":8,"act":"1","srcUpdateTime":"2021-06-17 21:58:11","updateTime":"2021-06-17 21:58:50","infoTime":"2021-06-17 21:57:44","infoDate":"2021-06-17"},{"sno":"500108002","sna":"YouBike2.0_北勢湖環保公園","tot":15,"sbi":3,"sarea":"內湖區","mday":"2021-06-17 21:57:44","lat":25.08378,"lng":121.56208,"ar":"內湖路一段66-72號前方公園","sareaen":"Neihu Dist","snaen":"YouBike2.0_Beishi Lake Environmental Park","aren":"No. 66-72， Sec. 1， Neihu Rd.","bemp":12,"act":"1","srcUpdateTime":"2021-06-17 21:58:11","updateTime":"2021-06-17 21:58:50","infoTime":"2021-06-17 21:57:44","infoDate":"2021-06-17"},{"sno":"500108003","sna":"YouBike2.0_洲子一號公園","tot":20,"sbi":4,"sarea":"內湖區","mday":"2021-06-17 21:57:44","lat":25.07977,"lng":121.56454,"ar":"基湖路37號西側","sareaen":"Neihu Dist","snaen":"YouBike2.0_Jhouzih No.1 Park","aren":"No. 37， Jihu Rd.","bemp":16,"act":"1","srcUpdateTime":"2021-06-17 21:58:11","updateTime":"2021-06-17 21:58:50","infoTime":"2021-06-17 21:57:44","infoDate":"2021-06-17"},{"sno":"500108004","sna":"YouBike2.0_西康公園","tot":16,"sbi":2,"sarea":"內湖區","mday":"2021-06-17 21:57:44","lat":25.08284,"lng":121.56449,"ar":"內湖路一段225巷口","sareaen":"Neihu Dist","snaen":"YouBike2.0_Xikang Park","aren":"No. 225， Sec 1， Neihu Rd.","bemp":14,"act":"1","srcUpdateTime":"2021-06-17 21:58:11","updateTime":"2021-06-17 21:58:50","infoTime":"2021-06-17 21:57:44","infoDate":"2021-06-17"},{"sno":"500108005","sna":"YouBike2.0_文湖國小","tot":15,"sbi":12,"sarea":"內湖區","mday":"2021-06-17 21:57:44","lat":25.08637,"lng":121.56088,"ar":"文湖街21巷口北側","sareaen":"Neihu Dist","snaen":"YouBike2.0_Wenhu Elementary School","aren":"Ln. 21， Wunhu St.","bemp":3,"act":"1","srcUpdateTime":"2021-06-17 21:58:11","updateTime":"2021-06-17 21:58:50","infoTime":"2021-06-17 21:57:44","infoDate":"2021-06-17"},